time,.header.seq,.header.stamp.secs,.header.stamp.nsecs,.header.frame_id,.angular_vel,.linear_vel,.kp_dist,.kd_dist,.kp_angle,.kd_angle,.y_offset,.fork_angle,.dist_2_pallet
1970/01/01/05:35:56.835000,1,356,835000000,,-0.4894,0.312,0.09,0.1,-0.858,0.02,0,-0.288,-3.473
1970/01/01/05:35:56.935000,2,356,935000000,,-0.477,0.31,0.09,0.1,-0.859,0.02,0,-0.304,-3.461
1970/01/01/05:35:57.034000,3,357,34000000,,-0.4625,0.309,0.09,0.1,-0.859,0.02,0,-0.321,-3.449
1970/01/01/05:35:57.135000,4,357,135000000,,-0.4523,0.308,0.09,0.1,-0.861,0.02,0,-0.336,-3.436
1970/01/01/05:35:57.235000,5,357,235000000,,-0.4386,0.307,0.09,0.1,-0.861,0.02,0,-0.352,-3.423
1970/01/01/05:35:57.335000,6,357,335000000,,-0.427,0.305,0.09,0.1,-0.862,0.02,0,-0.367,-3.409
1970/01/01/05:35:57.433000,7,357,433000000,,-0.4162,0.304,0.09,0.1,-0.863,0.02,0,-0.381,-3.395
1970/01/01/05:35:57.533000,8,357,533000000,,-0.4033,0.303,0.09,0.1,-0.863,0.02,0,-0.396,-3.379
1970/01/01/05:35:57.635000,9,357,635000000,,-0.3917,0.301,0.09,0.1,-0.864,0.02,0,-0.411,-3.364
1970/01/01/05:35:57.734000,10,357,734000000,,-0.3796,0.3,0.09,0.1,-0.864,0.02,0,-0.425,-3.347
1970/01/01/05:35:57.835000,11,357,834000000,,-0.3696,0.298,0.09,0.1,-0.865,0.02,0,-0.438,-3.331
1970/01/01/05:35:57.935000,12,357,935000000,,-0.3584,0.297,0.09,0.1,-0.865,0.02,0,-0.451,-3.314
1970/01/01/05:35:58.035000,13,358,34000000,,-0.3463,0.295,0.09,0.1,-0.865,0.02,0,-0.465,-3.297
1970/01/01/05:35:58.135000,14,358,135000000,,-0.335,0.293,0.09,0.1,-0.865,0.02,0,-0.478,-3.28
1970/01/01/05:35:58.235000,15,358,234000000,,-0.3258,0.292,0.09,0.1,-0.866,0.02,0,-0.49,-3.262
1970/01/01/05:35:58.335000,16,358,334000000,,-0.3134,0.29,0.09,0.1,-0.865,0.02,0,-0.503,-3.244
1970/01/01/05:35:58.435000,17,358,434000000,,-0.3042,0.289,0.09,0.1,-0.866,0.02,0,-0.515,-3.226
1970/01/01/05:35:58.534000,18,358,534000000,,-0.2926,0.287,0.09,0.1,-0.865,0.02,0,-0.527,-3.208
1970/01/01/05:35:58.635000,19,358,635000000,,-0.2822,0.285,0.09,0.1,-0.865,0.02,0,-0.539,-3.189
1970/01/01/05:35:58.735000,20,358,734000000,,-0.2727,0.284,0.09,0.1,-0.865,0.02,0,-0.55,-3.171
1970/01/01/05:35:58.835000,21,358,835000000,,-0.2623,0.282,0.09,0.1,-0.865,0.02,0,-0.562,-3.152
1970/01/01/05:35:58.933000,22,358,933000000,,-0.2528,0.28,0.09,0.1,-0.865,0.02,0,-0.573,-3.133
1970/01/01/05:35:59.033000,23,359,33000000,,-0.2422,0.278,0.09,0.1,-0.864,0.02,0,-0.584,-3.114
1970/01/01/05:35:59.135000,24,359,134000000,,-0.2326,0.276,0.09,0.1,-0.864,0.02,0,-0.595,-3.094
1970/01/01/05:35:59.234000,25,359,234000000,,-0.222,0.275,0.09,0.1,-0.863,0.02,0,-0.606,-3.075
1970/01/01/05:35:59.335000,26,359,335000000,,-0.2106,0.273,0.09,0.1,-0.862,0.02,0,-0.618,-3.055
1970/01/01/05:35:59.435000,27,359,434000000,,-0.1983,0.271,0.09,0.1,-0.861,0.02,0,-0.631,-3.032
1970/01/01/05:35:59.535000,28,359,535000000,,-0.1877,0.269,0.09,0.1,-0.86,0.02,0,-0.642,-3.011
1970/01/01/05:35:59.635000,29,359,635000000,,-0.1764,0.267,0.09,0.1,-0.859,0.02,0,-0.654,-2.99
1970/01/01/05:35:59.735000,30,359,734000000,,-0.1658,0.265,0.09,0.1,-0.858,0.02,0,-0.665,-2.969
1970/01/01/05:35:59.835000,31,359,835000000,,-0.1543,0.263,0.09,0.1,-0.856,0.02,0,-0.676,-2.949
1970/01/01/05:35:59.934000,32,359,934000000,,-0.1447,0.261,0.09,0.1,-0.855,0.02,0,-0.686,-2.928
1970/01/01/05:36:00.035000,33,360,34000000,,-0.1378,0.26,0.09,0.1,-0.855,0.02,0,-0.694,-2.911
1970/01/01/05:36:00.135000,34,360,135000000,,-0.1273,0.258,0.09,0.1,-0.853,0.02,0,-0.704,-2.89
1970/01/01/05:36:00.235000,35,360,234000000,,-0.1152,0.256,0.09,0.1,-0.851,0.02,0,-0.716,-2.868
1970/01/01/05:36:00.335000,36,360,335000000,,-0.1004,0.254,0.09,0.1,-0.848,0.02,0,-0.73,-2.846
1970/01/01/05:36:00.435000,37,360,434000000,,-0.0908,0.252,0.09,0.1,-0.847,0.02,0,-0.74,-2.825
1970/01/01/05:36:00.535000,38,360,535000000,,-0.0805,0.25,0.09,0.1,-0.845,0.02,0,-0.75,-2.804
1970/01/01/05:36:00.634000,39,360,634000000,,-0.0702,0.248,0.09,0.1,-0.843,0.02,0,-0.76,-2.783
1970/01/01/05:36:00.734000,40,360,734000000,,-0.0591,0.246,0.09,0.1,-0.841,0.02,0,-0.771,-2.762
1970/01/01/05:36:00.835000,41,360,835000000,,-0.048,0.244,0.09,0.1,-0.838,0.02,0,-0.781,-2.74
1970/01/01/05:36:00.935000,42,360,935000000,,-0.037,0.242,0.09,0.1,-0.835,0.02,0,-0.791,-2.718
1970/01/01/05:36:01.035000,43,361,35000000,,-0.0261,0.24,0.09,0.1,-0.833,0.02,0,-0.802,-2.696
1970/01/01/05:36:01.135000,44,361,135000000,,-0.0144,0.238,0.09,0.1,-0.83,0.02,0,-0.813,-2.674
1970/01/01/05:36:01.235000,45,361,235000000,,-0.0028,0.236,0.09,0.1,-0.827,0.02,0,-0.824,-2.65
1970/01/01/05:36:01.334000,46,361,333000000,,0.0104,0.234,0.09,0.1,-0.823,0.02,0,-0.836,-2.626
1970/01/01/05:36:01.433000,47,361,432000000,,0.0226,0.232,0.09,0.1,-0.819,0.02,0,-0.847,-2.601
1970/01/01/05:36:01.535000,48,361,534000000,,0.0379,0.229,0.09,0.1,-0.815,0.02,0,-0.862,-2.574
1970/01/01/05:36:01.635000,49,361,634000000,,0.0508,0.227,0.09,0.1,-0.811,0.02,0,-0.874,-2.548
1970/01/01/05:36:01.735000,50,361,734000000,,0.0657,0.224,0.09,0.1,-0.806,0.02,0,-0.888,-2.519
1970/01/01/05:36:01.835000,51,361,835000000,,0.0783,0.222,0.09,0.1,-0.802,0.02,0,-0.9,-2.494
1970/01/01/05:36:01.935000,52,361,935000000,,0.0921,0.219,0.09,0.1,-0.797,0.02,0,-0.913,-2.465
1970/01/01/05:36:02.034000,53,362,34000000,,0.1065,0.216,0.09,0.1,-0.792,0.02,0,-0.927,-2.435
1970/01/01/05:36:02.135000,54,362,134000000,,0.1222,0.213,0.09,0.1,-0.786,0.02,0,-0.942,-2.403
1970/01/01/05:36:02.234000,55,362,234000000,,0.1355,0.211,0.09,0.1,-0.781,0.02,0,-0.955,-2.375
1970/01/01/05:36:02.334000,56,362,334000000,,0.1515,0.207,0.09,0.1,-0.775,0.02,0,-0.971,-2.339
1970/01/01/05:36:02.435000,57,362,434000000,,0.1665,0.204,0.09,0.1,-0.769,0.02,0,-0.986,-2.307
1970/01/01/05:36:02.535000,58,362,534000000,,0.1812,0.201,0.09,0.1,-0.763,0.02,0,-1.001,-2.273
1970/01/01/05:36:02.635000,59,362,635000000,,0.1942,0.199,0.09,0.1,-0.757,0.02,0,-1.014,-2.242
1970/01/01/05:36:02.735000,60,362,734000000,,0.2072,0.196,0.09,0.1,-0.752,0.02,0,-1.028,-2.209
1970/01/01/05:36:02.834000,61,362,834000000,,0.2219,0.192,0.09,0.1,-0.746,0.02,0,-1.044,-2.174
1970/01/01/05:36:02.934000,62,362,934000000,,0.2342,0.19,0.09,0.1,-0.74,0.02,0,-1.057,-2.142
1970/01/01/05:36:03.034000,63,363,34000000,,0.2462,0.187,0.09,0.1,-0.734,0.02,0,-1.07,-2.11
1970/01/01/05:36:03.135000,64,363,134000000,,0.2581,0.184,0.09,0.1,-0.728,0.02,0,-1.083,-2.079
1970/01/01/05:36:03.235000,65,363,235000000,,0.2718,0.18,0.09,0.1,-0.722,0.02,0,-1.099,-2.041
1970/01/01/05:36:03.335000,66,363,334000000,,0.2839,0.177,0.09,0.1,-0.716,0.02,0,-1.113,-2.006
1970/01/01/05:36:03.435000,67,363,434000000,,0.2964,0.174,0.09,0.1,-0.71,0.02,0,-1.128,-1.97
1970/01/01/05:36:03.535000,68,363,535000000,,0.3066,0.171,0.09,0.1,-0.704,0.02,0,-1.14,-1.938
1970/01/01/05:36:03.633000,69,363,633000000,,0.3186,0.167,0.09,0.1,-0.698,0.02,0,-1.155,-1.901
1970/01/01/05:36:03.734000,70,363,734000000,,0.3305,0.164,0.09,0.1,-0.691,0.02,0,-1.17,-1.864
1970/01/01/05:36:03.834000,71,363,834000000,,0.3406,0.161,0.09,0.1,-0.686,0.02,0,-1.183,-1.829
1970/01/01/05:36:03.935000,72,363,935000000,,0.3512,0.158,0.09,0.1,-0.68,0.02,0,-1.197,-1.793
1970/01/01/05:36:04.035000,73,364,35000000,,0.3609,0.155,0.09,0.1,-0.674,0.02,0,-1.21,-1.759
1970/01/01/05:36:04.135000,74,364,135000000,,0.3704,0.152,0.09,0.1,-0.668,0.02,0,-1.223,-1.725
1970/01/01/05:36:04.235000,75,364,235000000,,0.3789,0.149,0.09,0.1,-0.663,0.02,0,-1.235,-1.692
1970/01/01/05:36:04.334000,76,364,334000000,,0.3879,0.146,0.09,0.1,-0.657,0.02,0,-1.248,-1.659
1970/01/01/05:36:04.432000,77,364,432000000,,0.3961,0.143,0.09,0.1,-0.652,0.02,0,-1.26,-1.626
1970/01/01/05:36:04.533000,78,364,533000000,,0.4034,0.14,0.09,0.1,-0.647,0.02,0,-1.271,-1.594
1970/01/01/05:36:04.634000,79,364,634000000,,0.4106,0.138,0.09,0.1,-0.642,0.02,0,-1.282,-1.564
1970/01/01/05:36:04.735000,80,364,735000000,,0.4182,0.135,0.09,0.1,-0.637,0.02,0,-1.294,-1.532
1970/01/01/05:36:04.835000,81,364,834000000,,0.4244,0.132,0.09,0.1,-0.632,0.02,0,-1.304,-1.503
1970/01/01/05:36:04.935000,82,364,935000000,,0.4298,0.13,0.09,0.1,-0.627,0.02,0,-1.313,-1.476
1970/01/01/05:36:05.034000,83,365,34000000,,0.4363,0.127,0.09,0.1,-0.622,0.02,0,-1.324,-1.446
1970/01/01/05:36:05.135000,84,365,135000000,,0.4422,0.125,0.09,0.1,-0.618,0.02,0,-1.334,-1.418
1970/01/01/05:36:05.234000,85,365,234000000,,0.4478,0.122,0.09,0.1,-0.613,0.02,0,-1.344,-1.39
1970/01/01/05:36:05.334000,86,365,334000000,,0.4528,0.12,0.09,0.1,-0.609,0.02,0,-1.353,-1.362
1970/01/01/05:36:05.435000,87,365,434000000,,0.4576,0.118,0.09,0.1,-0.604,0.02,0,-1.362,-1.336
1970/01/01/05:36:05.534000,88,365,534000000,,0.4629,0.115,0.09,0.1,-0.6,0.02,0,-1.372,-1.308
1970/01/01/05:36:05.636000,89,365,635000000,,0.4668,0.113,0.09,0.1,-0.595,0.02,0,-1.38,-1.282
1970/01/01/05:36:05.735000,90,365,735000000,,0.4714,0.11,0.09,0.1,-0.591,0.02,0,-1.389,-1.256
1970/01/01/05:36:05.835000,91,365,835000000,,0.4758,0.108,0.09,0.1,-0.587,0.02,0,-1.398,-1.231
1970/01/01/05:36:05.935000,92,365,935000000,,0.4796,0.106,0.09,0.1,-0.583,0.02,0,-1.406,-1.206
1970/01/01/05:36:06.035000,93,366,35000000,,0.4832,0.104,0.09,0.1,-0.579,0.02,0,-1.414,-1.184
1970/01/01/05:36:06.133000,94,366,133000000,,0.4868,0.102,0.09,0.1,-0.575,0.02,0,-1.422,-1.159
1970/01/01/05:36:06.235000,95,366,234000000,,0.4897,0.1,0.09,0.1,-0.571,0.02,0,-1.429,-1.137
1970/01/01/05:36:06.335000,96,366,335000000,,0.4934,0.098,0.09,0.1,-0.568,0.02,0,-1.437,-1.113
1970/01/01/05:36:06.434000,97,366,434000000,,0.4966,0.096,0.09,0.1,-0.564,0.02,0,-1.445,-1.091
1970/01/01/05:36:06.534000,98,366,533000000,,0.4993,0.094,0.09,0.1,-0.56,0.02,0,-1.452,-1.069
1970/01/01/05:36:06.635000,99,366,635000000,,0.5022,0.092,0.09,0.1,-0.557,0.02,0,-1.459,-1.047
1970/01/01/05:36:06.735000,100,366,734000000,,0.5047,0.09,0.09,0.1,-0.553,0.02,0,-1.466,-1.027
1970/01/01/05:36:06.835000,101,366,835000000,,0.5035,0.091,0.09,0.1,-0.548,0.02,0,-1.467,-1.019
1970/01/01/05:36:06.935000,102,366,935000000,,0.5003,0.093,0.09,0.1,-0.545,0.02,0,-1.463,-1.025
1970/01/01/05:36:07.034000,103,367,34000000,,0.4965,0.094,0.09,0.1,-0.542,0.02,0,-1.458,-1.035
1970/01/01/05:36:07.134000,104,367,134000000,,0.4923,0.095,0.09,0.1,-0.538,0.02,0,-1.453,-1.045
1970/01/01/05:36:07.234000,105,367,234000000,,0.488,0.096,0.09,0.1,-0.535,0.02,0,-1.447,-1.057
1970/01/01/05:36:07.335000,106,367,335000000,,0.4842,0.097,0.09,0.1,-0.532,0.02,0,-1.442,-1.066
1970/01/01/05:36:07.434000,107,367,434000000,,0.4804,0.098,0.09,0.1,-0.529,0.02,0,-1.437,-1.076
1970/01/01/05:36:07.535000,108,367,534000000,,0.4762,0.098,0.09,0.1,-0.525,0.02,0,-1.432,-1.084
1970/01/01/05:36:07.634000,109,367,634000000,,0.472,0.099,0.09,0.1,-0.521,0.02,0,-1.427,-1.094
1970/01/01/05:36:07.734000,110,367,734000000,,0.4678,0.101,0.09,0.1,-0.518,0.02,0,-1.421,-1.105
1970/01/01/05:36:07.834000,111,367,834000000,,0.4636,0.102,0.09,0.1,-0.515,0.02,0,-1.415,-1.116
1970/01/01/05:36:07.934000,112,367,934000000,,0.4594,0.103,0.09,0.1,-0.511,0.02,0,-1.41,-1.127
1970/01/01/05:36:08.035000,113,368,35000000,,0.4553,0.103,0.09,0.1,-0.507,0.02,0,-1.405,-1.136
1970/01/01/05:36:08.135000,114,368,134000000,,0.4507,0.104,0.09,0.1,-0.503,0.02,0,-1.399,-1.146
1970/01/01/05:36:08.235000,115,368,235000000,,0.447,0.105,0.09,0.1,-0.5,0.02,0,-1.394,-1.157
1970/01/01/05:36:08.335000,116,368,334000000,,0.4425,0.106,0.09,0.1,-0.496,0.02,0,-1.388,-1.168
1970/01/01/05:36:08.435000,117,368,434000000,,0.4384,0.107,0.09,0.1,-0.492,0.02,0,-1.383,-1.176
1970/01/01/05:36:08.535000,118,368,535000000,,0.4339,0.108,0.09,0.1,-0.488,0.02,0,-1.377,-1.188
1970/01/01/05:36:08.635000,119,368,634000000,,0.4298,0.109,0.09,0.1,-0.484,0.02,0,-1.372,-1.197
1970/01/01/05:36:08.734000,120,368,734000000,,0.4249,0.11,0.09,0.1,-0.48,0.02,0,-1.365,-1.21
1970/01/01/05:36:08.835000,121,368,835000000,,0.4203,0.111,0.09,0.1,-0.476,0.02,0,-1.359,-1.22
1970/01/01/05:36:08.934000,122,368,934000000,,0.4159,0.112,0.09,0.1,-0.472,0.02,0,-1.353,-1.23
1970/01/01/05:36:09.035000,123,369,35000000,,0.4119,0.113,0.09,0.1,-0.468,0.02,0,-1.348,-1.24
1970/01/01/05:36:09.135000,124,369,134000000,,0.407,0.114,0.09,0.1,-0.464,0.02,0,-1.341,-1.252
1970/01/01/05:36:09.235000,125,369,235000000,,0.4025,0.114,0.09,0.1,-0.459,0.02,0,-1.336,-1.26
1970/01/01/05:36:09.335000,126,369,334000000,,0.3982,0.116,0.09,0.1,-0.455,0.02,0,-1.33,-1.272
1970/01/01/05:36:09.435000,127,369,434000000,,0.3938,0.116,0.09,0.1,-0.451,0.02,0,-1.324,-1.281
1970/01/01/05:36:09.534000,128,369,534000000,,0.3889,0.118,0.09,0.1,-0.447,0.02,0,-1.317,-1.294
1970/01/01/05:36:09.635000,129,369,635000000,,0.3845,0.118,0.09,0.1,-0.442,0.02,0,-1.312,-1.304
1970/01/01/05:36:09.735000,130,369,735000000,,0.3798,0.119,0.09,0.1,-0.438,0.02,0,-1.305,-1.315
1970/01/01/05:36:09.835000,131,369,835000000,,0.3693,0.121,0.09,0.1,-0.425,0.02,0,-1.294,-1.331
1970/01/01/05:36:09.935000,132,369,934000000,,0.362,0.123,0.09,0.1,-0.418,0.02,0,-1.284,-1.348
1970/01/01/05:36:10.034000,133,370,33000000,,0.3566,0.125,0.09,0.1,-0.414,0.02,0,-1.275,-1.365
1970/01/01/05:36:10.135000,134,370,135000000,,0.3514,0.126,0.09,0.1,-0.41,0.02,0,-1.267,-1.38
1970/01/01/05:36:10.235000,135,370,235000000,,0.347,0.126,0.09,0.1,-0.404,0.02,0,-1.263,-1.387
1970/01/01/05:36:10.335000,136,370,335000000,,0.3427,0.126,0.09,0.1,-0.399,0.02,0,-1.258,-1.393
1970/01/01/05:36:10.435000,137,370,435000000,,0.3378,0.128,0.09,0.1,-0.395,0.02,0,-1.25,-1.407
1970/01/01/05:36:10.535000,138,370,535000000,,0.3323,0.129,0.09,0.1,-0.39,0.02,0,-1.242,-1.422
1970/01/01/05:36:10.655000,139,370,655000000,,0.328,0.129,0.09,0.1,-0.385,0.02,0,-1.237,-1.43
1970/01/01/05:36:10.735000,140,370,734000000,,0.3233,0.13,0.09,0.1,-0.379,0.02,0,-1.232,-1.436
1970/01/01/05:36:10.835000,141,370,835000000,,0.3185,0.132,0.09,0.1,-0.375,0.02,0,-1.224,-1.451
1970/01/01/05:36:10.934000,142,370,934000000,,0.3139,0.133,0.09,0.1,-0.371,0.02,0,-1.217,-1.464
1970/01/01/05:36:11.034000,143,371,34000000,,0.3091,0.133,0.09,0.1,-0.365,0.02,0,-1.212,-1.47
1970/01/01/05:36:11.135000,144,371,135000000,,0.3039,0.135,0.09,0.1,-0.36,0.02,0,-1.204,-1.482
1970/01/01/05:36:11.235000,145,371,234000000,,0.2989,0.136,0.09,0.1,-0.355,0.02,0,-1.197,-1.494
1970/01/01/05:36:11.334000,146,371,334000000,,0.2942,0.136,0.09,0.1,-0.349,0.02,0,-1.192,-1.502
1970/01/01/05:36:11.435000,147,371,435000000,,0.289,0.138,0.09,0.1,-0.344,0.02,0,-1.184,-1.515
1970/01/01/05:36:11.535000,148,371,534000000,,0.2844,0.138,0.09,0.1,-0.339,0.02,0,-1.178,-1.523
1970/01/01/05:36:11.635000,149,371,634000000,,0.2791,0.139,0.09,0.1,-0.333,0.02,0,-1.171,-1.534
1970/01/01/05:36:11.735000,150,371,735000000,,0.2746,0.14,0.09,0.1,-0.328,0.02,0,-1.165,-1.545
1970/01/01/05:36:11.835000,151,371,835000000,,0.2697,0.141,0.09,0.1,-0.323,0.02,0,-1.158,-1.555
1970/01/01/05:36:11.935000,152,371,934000000,,0.2644,0.142,0.09,0.1,-0.317,0.02,0,-1.151,-1.565
1970/01/01/05:36:12.035000,153,372,35000000,,0.2591,0.143,0.09,0.1,-0.311,0.02,0,-1.144,-1.575
1970/01/01/05:36:12.135000,154,372,135000000,,0.2543,0.144,0.09,0.1,-0.306,0.02,0,-1.137,-1.586
1970/01/01/05:36:12.235000,155,372,235000000,,0.249,0.145,0.09,0.1,-0.3,0.02,0,-1.13,-1.596
1970/01/01/05:36:12.334000,156,372,334000000,,0.244,0.145,0.09,0.1,-0.294,0.02,0,-1.124,-1.605
1970/01/01/05:36:12.434000,157,372,434000000,,0.2393,0.146,0.09,0.1,-0.289,0.02,0,-1.117,-1.615
1970/01/01/05:36:12.535000,158,372,535000000,,0.2341,0.147,0.09,0.1,-0.283,0.02,0,-1.11,-1.625
1970/01/01/05:36:12.635000,159,372,635000000,,0.2288,0.148,0.09,0.1,-0.277,0.02,0,-1.103,-1.635
1970/01/01/05:36:12.735000,160,372,735000000,,0.2236,0.149,0.09,0.1,-0.271,0.02,0,-1.096,-1.646
1970/01/01/05:36:12.835000,161,372,835000000,,0.2184,0.15,0.09,0.1,-0.265,0.02,0,-1.089,-1.655
1970/01/01/05:36:12.934000,162,372,934000000,,0.2134,0.15,0.09,0.1,-0.259,0.02,0,-1.083,-1.663
1970/01/01/05:36:13.035000,163,373,35000000,,0.2082,0.152,0.09,0.1,-0.253,0.02,0,-1.076,-1.674
1970/01/01/05:36:13.133000,164,373,133000000,,0.2031,0.153,0.09,0.1,-0.247,0.02,0,-1.069,-1.684
1970/01/01/05:36:13.234000,165,373,234000000,,0.1973,0.153,0.09,0.1,-0.24,0.02,0,-1.062,-1.692
1970/01/01/05:36:13.335000,166,373,334000000,,0.1927,0.154,0.09,0.1,-0.235,0.02,0,-1.055,-1.703
1970/01/01/05:36:13.435000,167,373,435000000,,0.1874,0.155,0.09,0.1,-0.229,0.02,0,-1.047,-1.714
1970/01/01/05:36:13.534000,168,373,534000000,,0.1818,0.156,0.09,0.1,-0.222,0.02,0,-1.041,-1.721
1970/01/01/05:36:13.634000,169,373,634000000,,0.1761,0.157,0.09,0.1,-0.215,0.02,0,-1.034,-1.73
1970/01/01/05:36:13.735000,170,373,735000000,,0.1708,0.158,0.09,0.1,-0.209,0.02,0,-1.026,-1.741
1970/01/01/05:36:13.834000,171,373,834000000,,0.1659,0.158,0.09,0.1,-0.203,0.02,0,-1.02,-1.749
1970/01/01/05:36:13.934000,172,373,933000000,,0.1601,0.159,0.09,0.1,-0.196,0.02,0,-1.013,-1.758
1970/01/01/05:36:14.034000,173,374,34000000,,0.1551,0.16,0.09,0.1,-0.19,0.02,0,-1.006,-1.767
1970/01/01/05:36:14.135000,174,374,135000000,,0.1498,0.161,0.09,0.1,-0.184,0.02,0,-0.998,-1.778
1970/01/01/05:36:14.235000,175,374,235000000,,0.1434,0.161,0.09,0.1,-0.176,0.02,0,-0.991,-1.785
1970/01/01/05:36:14.335000,176,374,335000000,,0.1384,0.162,0.09,0.1,-0.17,0.02,0,-0.984,-1.794
1970/01/01/05:36:14.435000,177,374,435000000,,0.1327,0.163,0.09,0.1,-0.163,0.02,0,-0.977,-1.803
1970/01/01/05:36:14.535000,178,374,535000000,,0.1275,0.164,0.09,0.1,-0.157,0.02,0,-0.969,-1.813
1970/01/01/05:36:14.634000,179,374,634000000,,0.1218,0.165,0.09,0.1,-0.15,0.02,0,-0.962,-1.821
1970/01/01/05:36:14.735000,180,374,734000000,,0.1161,0.166,0.09,0.1,-0.143,0.02,0,-0.955,-1.83
1970/01/01/05:36:14.835000,181,374,835000000,,0.1111,0.166,0.09,0.1,-0.137,0.02,0,-0.948,-1.839
1970/01/01/05:36:14.935000,182,374,935000000,,0.1053,0.167,0.09,0.1,-0.13,0.02,0,-0.94,-1.847
1970/01/01/05:36:15.034000,183,375,34000000,,0.0997,0.168,0.09,0.1,-0.123,0.02,0,-0.934,-1.855
1970/01/01/05:36:15.134000,184,375,134000000,,0.0934,0.168,0.09,0.1,-0.115,0.02,0,-0.927,-1.862
1970/01/01/05:36:15.234000,185,375,234000000,,0.0883,0.169,0.09,0.1,-0.109,0.02,0,-0.919,-1.871
1970/01/01/05:36:15.335000,186,375,335000000,,0.0826,0.17,0.09,0.1,-0.102,0.02,0,-0.912,-1.88
1970/01/01/05:36:15.434000,187,375,434000000,,0.0784,0.171,0.09,0.1,-0.097,0.02,0,-0.905,-1.888
1970/01/01/05:36:15.535000,188,375,535000000,,0.072,0.171,0.09,0.1,-0.089,0.02,0,-0.898,-1.895
1970/01/01/05:36:15.634000,189,375,634000000,,0.067,0.173,0.09,0.1,-0.083,0.02,0,-0.89,-1.906
1970/01/01/05:36:15.735000,190,375,735000000,,0.0614,0.172,0.09,0.1,-0.076,0.02,0,-0.884,-1.91
1970/01/01/05:36:15.835000,191,375,834000000,,0.0549,0.168,0.09,0.1,-0.067,0.02,0,-0.892,-1.889
1970/01/01/05:36:15.935000,192,375,935000000,,0.05,0.167,0.09,0.1,-0.06,0.02,0,-0.897,-1.871
1970/01/01/05:36:16.035000,193,376,35000000,,0.044,0.164,0.09,0.1,-0.052,0.02,0,-0.904,-1.849
1970/01/01/05:36:16.135000,194,376,134000000,,0.0386,0.163,0.09,0.1,-0.045,0.02,0,-0.907,-1.833
1970/01/01/05:36:16.234000,195,376,234000000,,0.0329,0.163,0.09,0.1,-0.038,0.02,0,-0.91,-1.82
1970/01/01/05:36:16.334000,196,376,334000000,,0.0271,0.161,0.09,0.1,-0.031,0.02,0,-0.913,-1.805
1970/01/01/05:36:16.435000,197,376,435000000,,0.0212,0.16,0.09,0.1,-0.024,0.02,0,-0.916,-1.791
1970/01/01/05:36:16.535000,198,376,535000000,,0.0151,0.159,0.09,0.1,-0.017,0.02,0,-0.918,-1.779
1970/01/01/05:36:16.633000,199,376,633000000,,0.008,0.158,0.09,0.1,-0.009,0.02,0,-0.92,-1.766
1970/01/01/05:36:16.734000,200,376,734000000,,0.0016,0.156,0.09,0.1,-0.002,0.02,0,-0.923,-1.751
1970/01/01/05:36:16.835000,201,376,835000000,,-0.0048,0.155,0.09,0.1,0.005,0.02,0,-0.925,-1.739
1970/01/01/05:36:16.934000,202,376,934000000,,-0.0114,0.154,0.09,0.1,0.012,0.02,0,-0.926,-1.728
1970/01/01/05:36:17.033000,203,377,33000000,,-0.0182,0.153,0.09,0.1,0.019,0.02,0,-0.928,-1.717
1970/01/01/05:36:17.134000,204,377,134000000,,-0.026,0.152,0.09,0.1,0.027,0.02,0,-0.929,-1.706
1970/01/01/05:36:17.235000,205,377,235000000,,-0.035,0.151,0.09,0.1,0.036,0.02,0,-0.93,-1.694
1970/01/01/05:36:17.335000,206,377,335000000,,-0.042,0.151,0.09,0.1,0.043,0.02,0,-0.931,-1.684
1970/01/01/05:36:17.435000,207,377,434000000,,-0.0504,0.149,0.09,0.1,0.051,0.02,0,-0.933,-1.671
1970/01/01/05:36:17.535000,208,377,535000000,,-0.0588,0.149,0.09,0.1,0.059,0.02,0,-0.934,-1.663
1970/01/01/05:36:17.634000,209,377,634000000,,-0.0661,0.148,0.09,0.1,0.066,0.02,0,-0.934,-1.654
1970/01/01/05:36:17.734000,210,377,734000000,,-0.0747,0.148,0.09,0.1,0.074,0.02,0,-0.933,-1.647
1970/01/01/05:36:17.835000,211,377,835000000,,-0.0834,0.147,0.09,0.1,0.082,0.02,0,-0.933,-1.64
1970/01/01/05:36:17.934000,212,377,934000000,,-0.092,0.146,0.09,0.1,0.09,0.02,0,-0.931,-1.634
1970/01/01/05:36:18.035000,213,378,35000000,,-0.101,0.146,0.09,0.1,0.098,0.02,0,-0.931,-1.627
1970/01/01/05:36:18.135000,214,378,135000000,,-0.1098,0.146,0.09,0.1,0.106,0.02,0,-0.929,-1.623
1970/01/01/05:36:18.234000,215,378,234000000,,-0.1187,0.145,0.09,0.1,0.114,0.02,0,-0.926,-1.619
1970/01/01/05:36:18.335000,216,378,335000000,,-0.1277,0.145,0.09,0.1,0.122,0.02,0,-0.924,-1.616
1970/01/01/05:36:18.435000,217,378,435000000,,-0.1369,0.145,0.09,0.1,0.13,0.02,0,-0.922,-1.612
1970/01/01/05:36:18.534000,218,378,534000000,,-0.1461,0.145,0.09,0.1,0.138,0.02,0,-0.92,-1.61
1970/01/01/05:36:18.635000,219,378,635000000,,-0.1539,0.145,0.09,0.1,0.145,0.02,0,-0.916,-1.609
1970/01/01/05:36:18.735000,220,378,735000000,,-0.1632,0.145,0.09,0.1,0.153,0.02,0,-0.913,-1.609
1970/01/01/05:36:18.835000,221,378,835000000,,-0.1711,0.145,0.09,0.1,0.16,0.02,0,-0.909,-1.609
1970/01/01/05:36:18.935000,222,378,935000000,,-0.1791,0.145,0.09,0.1,0.167,0.02,0,-0.905,-1.611
1970/01/01/05:36:19.035000,223,379,35000000,,-0.1884,0.145,0.09,0.1,0.175,0.02,0,-0.901,-1.612
1970/01/01/05:36:19.135000,224,379,135000000,,-0.1964,0.146,0.09,0.1,0.182,0.02,0,-0.897,-1.615
1970/01/01/05:36:19.237000,225,379,235000000,,-0.2031,0.146,0.09,0.1,0.188,0.02,0,-0.892,-1.619
1970/01/01/05:36:19.334000,226,379,334000000,,-0.2119,0.147,0.09,0.1,0.196,0.02,0,-0.885,-1.624
1970/01/01/05:36:19.435000,227,379,434000000,,-0.2197,0.147,0.09,0.1,0.203,0.02,0,-0.879,-1.631
1970/01/01/05:36:19.535000,228,379,535000000,,-0.2261,0.148,0.09,0.1,0.209,0.02,0,-0.873,-1.637
1970/01/01/05:36:19.634000,229,379,634000000,,-0.2326,0.149,0.09,0.1,0.215,0.02,0,-0.867,-1.644
1970/01/01/05:36:19.734000,230,379,734000000,,-0.2391,0.149,0.09,0.1,0.221,0.02,0,-0.861,-1.651
1970/01/01/05:36:19.835000,231,379,835000000,,-0.2469,0.15,0.09,0.1,0.228,0.02,0,-0.855,-1.657
1970/01/01/05:36:19.935000,232,379,935000000,,-0.2534,0.15,0.09,0.1,0.234,0.02,0,-0.849,-1.664
1970/01/01/05:36:20.034000,233,380,34000000,,-0.2597,0.151,0.09,0.1,0.24,0.02,0,-0.842,-1.672
1970/01/01/05:36:20.134000,234,380,134000000,,-0.2662,0.152,0.09,0.1,0.246,0.02,0,-0.836,-1.679
1970/01/01/05:36:20.235000,235,380,234000000,,-0.2727,0.152,0.09,0.1,0.252,0.02,0,-0.83,-1.685
1970/01/01/05:36:20.335000,236,380,334000000,,-0.2805,0.153,0.09,0.1,0.259,0.02,0,-0.824,-1.692
1970/01/01/05:36:20.435000,237,380,434000000,,-0.287,0.153,0.09,0.1,0.265,0.02,0,-0.818,-1.698
1970/01/01/05:36:20.535000,238,380,534000000,,-0.2935,0.154,0.09,0.1,0.271,0.02,0,-0.812,-1.704
1970/01/01/05:36:20.635000,239,380,634000000,,-0.3,0.155,0.09,0.1,0.277,0.02,0,-0.806,-1.711
1970/01/01/05:36:20.735000,240,380,734000000,,-0.3079,0.155,0.09,0.1,0.284,0.02,0,-0.8,-1.717
1970/01/01/05:36:20.835000,241,380,835000000,,-0.3144,0.156,0.09,0.1,0.29,0.02,0,-0.794,-1.723
1970/01/01/05:36:20.935000,242,380,934000000,,-0.3205,0.156,0.09,0.1,0.296,0.02,0,-0.787,-1.73
1970/01/01/05:36:21.035000,243,381,34000000,,-0.3271,0.157,0.09,0.1,0.302,0.02,0,-0.781,-1.736
1970/01/01/05:36:21.135000,244,381,135000000,,-0.3336,0.157,0.09,0.1,0.308,0.02,0,-0.775,-1.742
1970/01/01/05:36:21.235000,245,381,235000000,,-0.3401,0.158,0.09,0.1,0.314,0.02,0,-0.769,-1.749
1970/01/01/05:36:21.335000,246,381,335000000,,-0.3462,0.159,0.09,0.1,0.32,0.02,0,-0.762,-1.757
1970/01/01/05:36:21.435000,247,381,434000000,,-0.3531,0.159,0.09,0.1,0.326,0.02,0,-0.757,-1.762
1970/01/01/05:36:21.535000,248,381,535000000,,-0.3596,0.16,0.09,0.1,0.332,0.02,0,-0.751,-1.768
1970/01/01/05:36:21.635000,249,381,635000000,,-0.3661,0.16,0.09,0.1,0.338,0.02,0,-0.745,-1.774
1970/01/01/05:36:21.733000,250,381,733000000,,-0.3726,0.161,0.09,0.1,0.344,0.02,0,-0.739,-1.78
1970/01/01/05:36:21.835000,251,381,835000000,,-0.3787,0.161,0.09,0.1,0.35,0.02,0,-0.732,-1.786
1970/01/01/05:36:21.934000,252,381,934000000,,-0.3852,0.162,0.09,0.1,0.356,0.02,0,-0.726,-1.792
1970/01/01/05:36:22.034000,253,382,34000000,,-0.3917,0.162,0.09,0.1,0.362,0.02,0,-0.72,-1.798
1970/01/01/05:36:22.135000,254,382,135000000,,-0.3978,0.163,0.09,0.1,0.368,0.02,0,-0.713,-1.805
1970/01/01/05:36:22.235000,255,382,234000000,,-0.4058,0.164,0.09,0.1,0.375,0.02,0,-0.707,-1.811
1970/01/01/05:36:22.335000,256,382,334000000,,-0.4118,0.164,0.09,0.1,0.381,0.02,0,-0.7,-1.818
1970/01/01/05:36:22.435000,257,382,435000000,,-0.4183,0.165,0.09,0.1,0.387,0.02,0,-0.694,-1.823
1970/01/01/05:36:22.535000,258,382,535000000,,-0.4244,0.165,0.09,0.1,0.393,0.02,0,-0.687,-1.83
1970/01/01/05:36:22.634000,259,382,634000000,,-0.429,0.166,0.09,0.1,0.398,0.02,0,-0.68,-1.838
1970/01/01/05:36:22.733000,260,382,733000000,,-0.4351,0.167,0.09,0.1,0.404,0.02,0,-0.673,-1.844
1970/01/01/05:36:22.834000,261,382,834000000,,-0.4334,0.169,0.09,0.1,0.406,0.02,0,-0.662,-1.86
1970/01/01/05:36:22.935000,262,382,935000000,,-0.4415,0.168,0.09,0.1,0.413,0.02,0,-0.656,-1.865
1970/01/01/05:36:23.035000,263,383,35000000,,-0.4365,0.172,0.09,0.1,0.414,0.02,0,-0.641,-1.885
1970/01/01/05:36:23.135000,264,383,135000000,,-0.4431,0.171,0.09,0.1,0.42,0.02,0,-0.635,-1.89
1970/01/01/05:36:23.233000,265,383,233000000,,-0.4427,0.173,0.09,0.1,0.423,0.02,0,-0.624,-1.903
1970/01/01/05:36:23.335000,266,383,335000000,,-0.442,0.174,0.09,0.1,0.426,0.02,0,-0.612,-1.917
1970/01/01/05:36:23.433000,267,383,432000000,,-0.4504,0.173,0.09,0.1,0.433,0.02,0,-0.607,-1.921
1970/01/01/05:36:23.535000,268,383,535000000,,-0.4431,0.177,0.09,0.1,0.433,0.02,0,-0.591,-1.941
1970/01/01/05:36:23.635000,269,383,635000000,,-0.4447,0.177,0.09,0.1,0.437,0.02,0,-0.581,-1.952
1970/01/01/05:36:23.735000,270,383,734000000,,-0.4514,0.176,0.09,0.1,0.443,0.02,0,-0.576,-1.955
1970/01/01/05:36:23.834000,271,383,834000000,,-0.4464,0.179,0.09,0.1,0.444,0.02,0,-0.562,-1.973
1970/01/01/05:36:23.935000,272,383,934000000,,-0.445,0.18,0.09,0.1,0.447,0.02,0,-0.549,-1.987
1970/01/01/05:36:24.033000,273,384,32000000,,-0.4512,0.179,0.09,0.1,0.453,0.02,0,-0.543,-1.99
1970/01/01/05:36:24.134000,274,384,134000000,,-0.4484,0.182,0.09,0.1,0.455,0.02,0,-0.531,-2.004
1970/01/01/05:36:24.235000,275,384,235000000,,-0.4439,0.184,0.09,0.1,0.457,0.02,0,-0.515,-2.022
1970/01/01/05:36:24.335000,276,384,335000000,,-0.45,0.182,0.09,0.1,0.463,0.02,0,-0.509,-2.024
1970/01/01/05:36:24.435000,277,384,434000000,,-0.45,0.184,0.09,0.1,0.466,0.02,0,-0.5,-2.032
1970/01/01/05:36:24.535000,278,384,534000000,,-0.4438,0.186,0.09,0.1,0.467,0.02,0,-0.484,-2.05
1970/01/01/05:36:24.635000,279,384,635000000,,-0.446,0.186,0.09,0.1,0.471,0.02,0,-0.476,-2.056
1970/01/01/05:36:24.734000,280,384,734000000,,-0.4517,0.185,0.09,0.1,0.477,0.02,0,-0.47,-2.058
1970/01/01/05:36:24.835000,281,384,834000000,,-0.4491,0.187,0.09,0.1,0.479,0.02,0,-0.459,-2.069
1970/01/01/05:36:24.934000,282,384,934000000,,-0.4408,0.189,0.09,0.1,0.479,0.02,0,-0.442,-2.086
1970/01/01/05:36:25.035000,283,385,34000000,,-0.4443,0.189,0.09,0.1,0.484,0.02,0,-0.434,-2.091
1970/01/01/05:36:25.135000,284,385,135000000,,-0.4484,0.188,0.09,0.1,0.489,0.02,0,-0.428,-2.092
1970/01/01/05:36:25.234000,285,385,233000000,,-0.4446,0.191,0.09,0.1,0.491,0.02,0,-0.415,-2.104
1970/01/01/05:36:25.335000,286,385,335000000,,-0.4372,0.192,0.09,0.1,0.491,0.02,0,-0.4,-2.118
1970/01/01/05:36:25.435000,287,385,435000000,,-0.439,0.191,0.09,0.1,0.495,0.02,0,-0.392,-2.121
1970/01/01/05:36:25.535000,288,385,535000000,,-0.4444,0.191,0.09,0.1,0.501,0.02,0,-0.386,-2.122
1970/01/01/05:36:25.634000,289,385,634000000,,-0.4395,0.193,0.09,0.1,0.502,0.02,0,-0.374,-2.133
1970/01/01/05:36:25.734000,290,385,734000000,,-0.4319,0.194,0.09,0.1,0.502,0.02,0,-0.359,-2.145
1970/01/01/05:36:25.834000,291,385,833000000,,-0.4374,0.193,0.09,0.1,0.508,0.02,0,-0.353,-2.146
1970/01/01/05:36:25.935000,292,385,934000000,,-0.4412,0.193,0.09,0.1,0.513,0.02,0,-0.347,-2.147
1970/01/01/05:36:26.035000,293,386,35000000,,-0.4337,0.195,0.09,0.1,0.513,0.02,0,-0.333,-2.158
1970/01/01/05:36:26.135000,294,386,135000000,,-0.4265,0.196,0.09,0.1,0.513,0.02,0,-0.319,-2.168
1970/01/01/05:36:26.235000,295,386,235000000,,-0.4318,0.195,0.09,0.1,0.519,0.02,0,-0.313,-2.168
1970/01/01/05:36:26.334000,296,386,334000000,,-0.4354,0.195,0.09,0.1,0.524,0.02,0,-0.307,-2.169
1970/01/01/05:36:26.435000,297,386,435000000,,-0.4284,0.197,0.09,0.1,0.524,0.02,0,-0.294,-2.178
1970/01/01/05:36:26.535000,298,386,534000000,,-0.4224,0.198,0.09,0.1,0.525,0.02,0,-0.28,-2.186
1970/01/01/05:36:26.635000,299,386,634000000,,-0.4261,0.197,0.09,0.1,0.53,0.02,0,-0.274,-2.186
1970/01/01/05:36:26.735000,300,386,734000000,,-0.4252,0.198,0.09,0.1,0.533,0.02,0,-0.265,-2.19
1970/01/01/05:36:26.834000,301,386,834000000,,-0.4176,0.199,0.09,0.1,0.533,0.02,0,-0.251,-2.198
1970/01/01/05:36:26.935000,302,386,935000000,,-0.4193,0.198,0.09,0.1,0.537,0.02,0,-0.244,-2.199
1970/01/01/05:36:27.035000,303,387,34000000,,-0.4214,0.198,0.09,0.1,0.541,0.02,0,-0.238,-2.199
1970/01/01/05:36:27.134000,304,387,134000000,,-0.4136,0.199,0.09,0.1,0.541,0.02,0,-0.224,-2.206
1970/01/01/05:36:27.235000,305,387,235000000,,-0.4128,0.199,0.09,0.1,0.544,0.02,0,-0.215,-2.209
1970/01/01/05:36:27.335000,306,387,335000000,,-0.4148,0.199,0.09,0.1,0.548,0.02,0,-0.209,-2.208
1970/01/01/05:36:27.433000,307,387,433000000,,-0.4118,0.199,0.09,0.1,0.55,0.02,0,-0.199,-2.212
1970/01/01/05:36:27.534000,308,387,534000000,,-0.4045,0.2,0.09,0.1,0.55,0.02,0,-0.186,-2.217
1970/01/01/05:36:27.633000,309,387,633000000,,-0.4079,0.199,0.09,0.1,0.555,0.02,0,-0.18,-2.216
1970/01/01/05:36:27.735000,310,387,735000000,,-0.4078,0.199,0.09,0.1,0.558,0.02,0,-0.173,-2.216
1970/01/01/05:36:27.834000,311,387,834000000,,-0.4004,0.2,0.09,0.1,0.558,0.02,0,-0.16,-2.221
1970/01/01/05:36:27.935000,312,387,935000000,,-0.3999,0.2,0.09,0.1,0.561,0.02,0,-0.152,-2.222
1970/01/01/05:36:28.034000,313,388,34000000,,-0.4017,0.2,0.09,0.1,0.565,0.02,0,-0.146,-2.22
1970/01/01/05:36:28.135000,314,388,134000000,,-0.396,0.201,0.09,0.1,0.566,0.02,0,-0.134,-2.224
1970/01/01/05:36:28.235000,315,388,234000000,,-0.3929,0.2,0.09,0.1,0.568,0.02,0,-0.124,-2.225
1970/01/01/05:36:28.335000,316,388,335000000,,-0.3946,0.2,0.09,0.1,0.572,0.02,0,-0.118,-2.223
1970/01/01/05:36:28.435000,317,388,434000000,,-0.3894,0.201,0.09,0.1,0.573,0.02,0,-0.107,-2.226
1970/01/01/05:36:28.535000,318,388,535000000,,-0.3868,0.2,0.09,0.1,0.575,0.02,0,-0.098,-2.226
1970/01/01/05:36:28.635000,319,388,635000000,,-0.3885,0.2,0.09,0.1,0.579,0.02,0,-0.092,-2.223
1970/01/01/05:36:28.735000,320,388,735000000,,-0.3807,0.201,0.09,0.1,0.579,0.02,0,-0.079,-2.226
1970/01/01/05:36:28.834000,321,388,834000000,,-0.3787,0.2,0.09,0.1,0.581,0.02,0,-0.071,-2.225
1970/01/01/05:36:28.934000,322,388,934000000,,-0.3802,0.2,0.09,0.1,0.585,0.02,0,-0.065,-2.222
1970/01/01/05:36:29.035000,323,389,35000000,,-0.373,0.2,0.09,0.1,0.585,0.02,0,-0.053,-2.224
1970/01/01/05:36:29.135000,324,389,134000000,,-0.3703,0.2,0.09,0.1,0.587,0.02,0,-0.044,-2.223
1970/01/01/05:36:29.235000,325,389,234000000,,-0.3717,0.2,0.09,0.1,0.591,0.02,0,-0.038,-2.22
1970/01/01/05:36:29.335000,326,389,335000000,,-0.3699,0.199,0.09,0.1,0.592,0.02,0,-0.033,-2.215
1970/01/01/05:36:29.436000,327,389,435000000,,-0.3694,0.198,0.09,0.1,0.592,0.02,0,-0.032,-2.208
1970/01/01/05:36:29.534000,328,389,534000000,,-0.3688,0.197,0.09,0.1,0.592,0.02,0,-0.031,-2.199
1970/01/01/05:36:29.635000,329,389,635000000,,-0.3688,0.196,0.09,0.1,0.592,0.02,0,-0.031,-2.19
1970/01/01/05:36:29.734000,330,389,734000000,,-0.3688,0.195,0.09,0.1,0.592,0.02,0,-0.031,-2.181
1970/01/01/05:36:29.835000,331,389,834000000,,-0.3701,0.195,0.09,0.1,0.593,0.02,0,-0.031,-2.172
1970/01/01/05:36:29.935000,332,389,934000000,,-0.3694,0.194,0.09,0.1,0.593,0.02,0,-0.03,-2.165
1970/01/01/05:36:30.035000,333,390,34000000,,-0.3694,0.193,0.09,0.1,0.593,0.02,0,-0.03,-2.156
1970/01/01/05:36:30.135000,334,390,134000000,,-0.3694,0.192,0.09,0.1,0.593,0.02,0,-0.03,-2.147
1970/01/01/05:36:30.234000,335,390,234000000,,-0.3688,0.192,0.09,0.1,0.593,0.02,0,-0.029,-2.139
1970/01/01/05:36:30.335000,336,390,335000000,,-0.3688,0.191,0.09,0.1,0.593,0.02,0,-0.029,-2.131
1970/01/01/05:36:30.434000,337,390,434000000,,-0.3688,0.19,0.09,0.1,0.593,0.02,0,-0.029,-2.122
1970/01/01/05:36:30.535000,338,390,534000000,,-0.3682,0.189,0.09,0.1,0.593,0.02,0,-0.028,-2.114
1970/01/01/05:36:30.635000,339,390,635000000,,-0.3683,0.188,0.09,0.1,0.593,0.02,0,-0.028,-2.104
1970/01/01/05:36:30.735000,340,390,734000000,,-0.3683,0.188,0.09,0.1,0.593,0.02,0,-0.028,-2.096
1970/01/01/05:36:30.835000,341,390,835000000,,-0.3695,0.187,0.09,0.1,0.594,0.02,0,-0.028,-2.087
1970/01/01/05:36:30.935000,342,390,935000000,,-0.3689,0.186,0.09,0.1,0.594,0.02,0,-0.027,-2.078
1970/01/01/05:36:31.034000,343,391,34000000,,-0.3689,0.185,0.09,0.1,0.594,0.02,0,-0.027,-2.07
1970/01/01/05:36:31.134000,344,391,134000000,,-0.3689,0.185,0.09,0.1,0.594,0.02,0,-0.027,-2.061
1970/01/01/05:36:31.234000,345,391,234000000,,-0.3689,0.184,0.09,0.1,0.594,0.02,0,-0.027,-2.053
1970/01/01/05:36:31.333000,346,391,333000000,,-0.3689,0.183,0.09,0.1,0.594,0.02,0,-0.027,-2.044
1970/01/01/05:36:31.434000,347,391,434000000,,-0.3683,0.182,0.09,0.1,0.594,0.02,0,-0.026,-2.035
1970/01/01/05:36:31.535000,348,391,534000000,,-0.3683,0.182,0.09,0.1,0.594,0.02,0,-0.026,-2.027
1970/01/01/05:36:31.635000,349,391,635000000,,-0.3683,0.181,0.09,0.1,0.594,0.02,0,-0.026,-2.017
1970/01/01/05:36:31.735000,350,391,735000000,,-0.3677,0.18,0.09,0.1,0.594,0.02,0,-0.025,-2.009
1970/01/01/05:36:31.835000,351,391,835000000,,-0.3689,0.179,0.09,0.1,0.595,0.02,0,-0.025,-1.999
1970/01/01/05:36:31.934000,352,391,934000000,,-0.3689,0.178,0.09,0.1,0.595,0.02,0,-0.025,-1.99
1970/01/01/05:36:32.033000,353,392,33000000,,-0.3683,0.177,0.09,0.1,0.595,0.02,0,-0.024,-1.981
1970/01/01/05:36:32.135000,354,392,135000000,,-0.3683,0.177,0.09,0.1,0.595,0.02,0,-0.024,-1.973
1970/01/01/05:36:32.235000,355,392,235000000,,-0.3683,0.176,0.09,0.1,0.595,0.02,0,-0.024,-1.964
1970/01/01/05:36:32.335000,356,392,334000000,,-0.3683,0.175,0.09,0.1,0.595,0.02,0,-0.024,-1.955
1970/01/01/05:36:32.434000,357,392,433000000,,-0.3683,0.174,0.09,0.1,0.595,0.02,0,-0.024,-1.946
1970/01/01/05:36:32.535000,358,392,535000000,,-0.3677,0.174,0.09,0.1,0.595,0.02,0,-0.023,-1.938
1970/01/01/05:36:32.635000,359,392,635000000,,-0.3677,0.173,0.09,0.1,0.595,0.02,0,-0.023,-1.93
1970/01/01/05:36:32.735000,360,392,735000000,,-0.3677,0.172,0.09,0.1,0.595,0.02,0,-0.023,-1.921
1970/01/01/05:36:32.835000,361,392,835000000,,-0.3677,0.171,0.09,0.1,0.595,0.02,0,-0.023,-1.913
1970/01/01/05:36:32.935000,362,392,934000000,,-0.3671,0.17,0.09,0.1,0.595,0.02,0,-0.022,-1.904
1970/01/01/05:36:33.033000,363,393,33000000,,-0.3683,0.17,0.09,0.1,0.596,0.02,0,-0.022,-1.896
1970/01/01/05:36:33.134000,364,393,134000000,,-0.3683,0.169,0.09,0.1,0.596,0.02,0,-0.022,-1.888
1970/01/01/05:36:33.235000,365,393,235000000,,-0.3683,0.168,0.09,0.1,0.596,0.02,0,-0.022,-1.879
1970/01/01/05:36:33.335000,366,393,335000000,,-0.3677,0.167,0.09,0.1,0.596,0.02,0,-0.021,-1.87
1970/01/01/05:36:33.435000,367,393,434000000,,-0.3677,0.167,0.09,0.1,0.596,0.02,0,-0.021,-1.862
1970/01/01/05:36:33.535000,368,393,535000000,,-0.3677,0.166,0.09,0.1,0.596,0.02,0,-0.021,-1.853
1970/01/01/05:36:33.635000,369,393,635000000,,-0.3677,0.165,0.09,0.1,0.596,0.02,0,-0.021,-1.845
1970/01/01/05:36:33.735000,370,393,735000000,,-0.3671,0.164,0.09,0.1,0.596,0.02,0,-0.02,-1.836
1970/01/01/05:36:33.835000,371,393,834000000,,-0.3671,0.164,0.09,0.1,0.596,0.02,0,-0.02,-1.828
1970/01/01/05:36:33.935000,372,393,934000000,,-0.3671,0.163,0.09,0.1,0.596,0.02,0,-0.02,-1.819
1970/01/01/05:36:34.035000,373,394,35000000,,-0.3671,0.162,0.09,0.1,0.596,0.02,0,-0.02,-1.809
1970/01/01/05:36:34.134000,374,394,134000000,,-0.3671,0.161,0.09,0.1,0.596,0.02,0,-0.02,-1.801
1970/01/01/05:36:34.234000,375,394,234000000,,-0.3665,0.16,0.09,0.1,0.596,0.02,0,-0.019,-1.792
1970/01/01/05:36:34.335000,376,394,335000000,,-0.3665,0.16,0.09,0.1,0.596,0.02,0,-0.019,-1.783
1970/01/01/05:36:34.435000,377,394,435000000,,-0.3678,0.159,0.09,0.1,0.597,0.02,0,-0.019,-1.775
1970/01/01/05:36:34.535000,378,394,534000000,,-0.3678,0.158,0.09,0.1,0.597,0.02,0,-0.019,-1.766
1970/01/01/05:36:34.635000,379,394,634000000,,-0.3678,0.157,0.09,0.1,0.597,0.02,0,-0.019,-1.757
1970/01/01/05:36:34.735000,380,394,735000000,,-0.3671,0.157,0.09,0.1,0.597,0.02,0,-0.018,-1.749
1970/01/01/05:36:34.835000,381,394,835000000,,-0.3672,0.156,0.09,0.1,0.597,0.02,0,-0.018,-1.74
1970/01/01/05:36:34.934000,382,394,934000000,,-0.3672,0.155,0.09,0.1,0.597,0.02,0,-0.018,-1.73
1970/01/01/05:36:35.033000,383,395,33000000,,-0.3672,0.154,0.09,0.1,0.597,0.02,0,-0.018,-1.722
1970/01/01/05:36:35.134000,384,395,134000000,,-0.3665,0.153,0.09,0.1,0.597,0.02,0,-0.017,-1.714
1970/01/01/05:36:35.235000,385,395,234000000,,-0.3666,0.153,0.09,0.1,0.597,0.02,0,-0.017,-1.705
1970/01/01/05:36:35.335000,386,395,334000000,,-0.3666,0.152,0.09,0.1,0.597,0.02,0,-0.017,-1.696
1970/01/01/05:36:35.435000,387,395,434000000,,-0.3666,0.151,0.09,0.1,0.597,0.02,0,-0.017,-1.688
1970/01/01/05:36:35.534000,388,395,534000000,,-0.3666,0.15,0.09,0.1,0.597,0.02,0,-0.017,-1.679
1970/01/01/05:36:35.634000,389,395,634000000,,-0.3666,0.149,0.09,0.1,0.597,0.02,0,-0.017,-1.669
1970/01/01/05:36:35.735000,390,395,735000000,,-0.3659,0.148,0.09,0.1,0.597,0.02,0,-0.016,-1.66
1970/01/01/05:36:35.834000,391,395,833000000,,-0.366,0.148,0.09,0.1,0.597,0.02,0,-0.016,-1.651
1970/01/01/05:36:35.934000,392,395,934000000,,-0.366,0.147,0.09,0.1,0.597,0.02,0,-0.016,-1.643
1970/01/01/05:36:36.034000,393,396,33000000,,-0.366,0.146,0.09,0.1,0.597,0.02,0,-0.016,-1.634
1970/01/01/05:36:36.133000,394,396,133000000,,-0.3672,0.145,0.09,0.1,0.598,0.02,0,-0.016,-1.625
1970/01/01/05:36:36.235000,395,396,235000000,,-0.3666,0.145,0.09,0.1,0.598,0.02,0,-0.015,-1.616
1970/01/01/05:36:36.333000,396,396,333000000,,-0.3666,0.144,0.09,0.1,0.598,0.02,0,-0.015,-1.608
1970/01/01/05:36:36.434000,397,396,434000000,,-0.3666,0.143,0.09,0.1,0.598,0.02,0,-0.015,-1.599
1970/01/01/05:36:36.534000,398,396,533000000,,-0.3666,0.142,0.09,0.1,0.598,0.02,0,-0.015,-1.59
1970/01/01/05:36:36.635000,399,396,635000000,,-0.3666,0.141,0.09,0.1,0.598,0.02,0,-0.015,-1.581
1970/01/01/05:36:36.735000,400,396,734000000,,-0.366,0.141,0.09,0.1,0.598,0.02,0,-0.014,-1.573
1970/01/01/05:36:36.835000,401,396,835000000,,-0.366,0.14,0.09,0.1,0.598,0.02,0,-0.014,-1.564
1970/01/01/05:36:36.935000,402,396,934000000,,-0.366,0.139,0.09,0.1,0.598,0.02,0,-0.014,-1.556
1970/01/01/05:36:37.034000,403,397,34000000,,-0.366,0.138,0.09,0.1,0.598,0.02,0,-0.014,-1.547
1970/01/01/05:36:37.135000,404,397,135000000,,-0.366,0.138,0.09,0.1,0.598,0.02,0,-0.014,-1.538
1970/01/01/05:36:37.234000,405,397,234000000,,-0.366,0.137,0.09,0.1,0.598,0.02,0,-0.014,-1.529
1970/01/01/05:36:37.334000,406,397,334000000,,-0.3654,0.136,0.09,0.1,0.598,0.02,0,-0.013,-1.521
1970/01/01/05:36:37.435000,407,397,435000000,,-0.3654,0.135,0.09,0.1,0.598,0.02,0,-0.013,-1.513
1970/01/01/05:36:37.534000,408,397,534000000,,-0.3654,0.134,0.09,0.1,0.598,0.02,0,-0.013,-1.504
1970/01/01/05:36:37.635000,409,397,635000000,,-0.3654,0.134,0.09,0.1,0.598,0.02,0,-0.013,-1.496
1970/01/01/05:36:37.735000,410,397,735000000,,-0.3648,0.133,0.09,0.1,0.598,0.02,0,-0.012,-1.487
1970/01/01/05:36:37.835000,411,397,835000000,,-0.3648,0.132,0.09,0.1,0.598,0.02,0,-0.012,-1.478
1970/01/01/05:36:37.935000,412,397,935000000,,-0.3648,0.132,0.09,0.1,0.598,0.02,0,-0.012,-1.47
1970/01/01/05:36:38.035000,413,398,34000000,,-0.3648,0.131,0.09,0.1,0.598,0.02,0,-0.012,-1.461
1970/01/01/05:36:38.134000,414,398,134000000,,-0.3648,0.13,0.09,0.1,0.598,0.02,0,-0.012,-1.453
1970/01/01/05:36:38.235000,415,398,235000000,,-0.3648,0.129,0.09,0.1,0.598,0.02,0,-0.012,-1.444
1970/01/01/05:36:38.335000,416,398,335000000,,-0.3648,0.128,0.09,0.1,0.598,0.02,0,-0.012,-1.435
1970/01/01/05:36:38.435000,417,398,435000000,,-0.3642,0.127,0.09,0.1,0.598,0.02,0,-0.011,-1.425
1970/01/01/05:36:38.535000,418,398,535000000,,-0.3642,0.127,0.09,0.1,0.598,0.02,0,-0.011,-1.417
1970/01/01/05:36:38.635000,419,398,635000000,,-0.3642,0.126,0.09,0.1,0.598,0.02,0,-0.011,-1.408
1970/01/01/05:36:38.735000,420,398,735000000,,-0.3642,0.125,0.09,0.1,0.598,0.02,0,-0.011,-1.399
1970/01/01/05:36:38.834000,421,398,834000000,,-0.3654,0.124,0.09,0.1,0.599,0.02,0,-0.011,-1.39
1970/01/01/05:36:38.935000,422,398,935000000,,-0.3654,0.124,0.09,0.1,0.599,0.02,0,-0.011,-1.382
1970/01/01/05:36:39.035000,423,399,35000000,,-0.3648,0.123,0.09,0.1,0.599,0.02,0,-0.01,-1.373
1970/01/01/05:36:39.135000,424,399,134000000,,-0.3648,0.122,0.09,0.1,0.599,0.02,0,-0.01,-1.365
1970/01/01/05:36:39.235000,425,399,235000000,,-0.3648,0.121,0.09,0.1,0.599,0.02,0,-0.01,-1.356
1970/01/01/05:36:39.335000,426,399,335000000,,-0.3648,0.12,0.09,0.1,0.599,0.02,0,-0.01,-1.346
1970/01/01/05:36:39.435000,427,399,435000000,,-0.3648,0.119,0.09,0.1,0.599,0.02,0,-0.01,-1.336
1970/01/01/05:36:39.535000,428,399,535000000,,-0.3642,0.119,0.09,0.1,0.599,0.02,0,-0.009,-1.328
1970/01/01/05:36:39.636000,429,399,635000000,,-0.3642,0.118,0.09,0.1,0.599,0.02,0,-0.009,-1.319
1970/01/01/05:36:39.735000,430,399,734000000,,-0.3642,0.117,0.09,0.1,0.599,0.02,0,-0.009,-1.311
1970/01/01/05:36:39.835000,431,399,835000000,,-0.3642,0.116,0.09,0.1,0.599,0.02,0,-0.009,-1.302
1970/01/01/05:36:39.934000,432,399,934000000,,-0.3642,0.115,0.09,0.1,0.599,0.02,0,-0.009,-1.293
1970/01/01/05:36:40.035000,433,400,35000000,,-0.3642,0.115,0.09,0.1,0.599,0.02,0,-0.009,-1.284
1970/01/01/05:36:40.135000,434,400,135000000,,-0.3642,0.114,0.09,0.1,0.599,0.02,0,-0.009,-1.276
1970/01/01/05:36:40.235000,435,400,234000000,,-0.3636,0.113,0.09,0.1,0.599,0.02,0,-0.008,-1.267
1970/01/01/05:36:40.335000,436,400,335000000,,-0.3636,0.112,0.09,0.1,0.599,0.02,0,-0.008,-1.258
1970/01/01/05:36:40.434000,437,400,434000000,,-0.3636,0.111,0.09,0.1,0.599,0.02,0,-0.008,-1.248
1970/01/01/05:36:40.535000,438,400,534000000,,-0.3636,0.111,0.09,0.1,0.599,0.02,0,-0.008,-1.239
1970/01/01/05:36:40.655000,439,400,654000000,,-0.3636,0.11,0.09,0.1,0.599,0.02,0,-0.008,-1.231
1970/01/01/05:36:40.735000,440,400,735000000,,-0.3636,0.109,0.09,0.1,0.599,0.02,0,-0.008,-1.221
1970/01/01/05:36:40.835000,441,400,835000000,,-0.363,0.108,0.09,0.1,0.599,0.02,0,-0.007,-1.213
1970/01/01/05:36:40.935000,442,400,934000000,,-0.363,0.107,0.09,0.1,0.599,0.02,0,-0.007,-1.204
1970/01/01/05:36:41.035000,443,401,34000000,,-0.363,0.107,0.09,0.1,0.599,0.02,0,-0.007,-1.195
1970/01/01/05:36:41.135000,444,401,135000000,,-0.363,0.106,0.09,0.1,0.599,0.02,0,-0.007,-1.186
1970/01/01/05:36:41.236000,445,401,235000000,,-0.363,0.105,0.09,0.1,0.599,0.02,0,-0.007,-1.178
1970/01/01/05:36:41.335000,446,401,334000000,,-0.363,0.104,0.09,0.1,0.599,0.02,0,-0.007,-1.169
1970/01/01/05:36:41.434000,447,401,434000000,,-0.363,0.103,0.09,0.1,0.599,0.02,0,-0.007,-1.16
1970/01/01/05:36:41.534000,448,401,534000000,,-0.3624,0.103,0.09,0.1,0.599,0.02,0,-0.006,-1.152
1970/01/01/05:36:41.634000,449,401,634000000,,-0.3624,0.102,0.09,0.1,0.599,0.02,0,-0.006,-1.143
1970/01/01/05:36:41.734000,450,401,734000000,,-0.3624,0.101,0.09,0.1,0.599,0.02,0,-0.006,-1.134
1970/01/01/05:36:41.835000,451,401,835000000,,-0.3624,0.1,0.09,0.1,0.599,0.02,0,-0.006,-1.125
1970/01/01/05:36:41.935000,452,401,935000000,,-0.3624,0.1,0.09,0.1,0.599,0.02,0,-0.006,-1.117
1970/01/01/05:36:42.033000,453,402,33000000,,-0.3624,0.099,0.09,0.1,0.599,0.02,0,-0.006,-1.107
1970/01/01/05:36:42.135000,454,402,135000000,,-0.3618,0.098,0.09,0.1,0.599,0.02,0,-0.005,-1.099
1970/01/01/05:36:42.234000,455,402,234000000,,-0.3618,0.097,0.09,0.1,0.599,0.02,0,-0.005,-1.091
1970/01/01/05:36:42.334000,456,402,334000000,,-0.3618,0.096,0.09,0.1,0.599,0.02,0,-0.005,-1.081
1970/01/01/05:36:42.434000,457,402,434000000,,-0.3618,0.096,0.09,0.1,0.599,0.02,0,-0.005,-1.073
1970/01/01/05:36:42.535000,458,402,535000000,,-0.3618,0.095,0.09,0.1,0.599,0.02,0,-0.005,-1.065
1970/01/01/05:36:42.635000,459,402,635000000,,-0.3618,0.094,0.09,0.1,0.599,0.02,0,-0.005,-1.055
1970/01/01/05:36:42.735000,460,402,734000000,,-0.3618,0.093,0.09,0.1,0.599,0.02,0,-0.005,-1.046
1970/01/01/05:36:42.835000,461,402,834000000,,-0.3612,0.093,0.09,0.1,0.599,0.02,0,-0.004,-1.038
1970/01/01/05:36:42.935000,462,402,935000000,,-0.3612,0.092,0.09,0.1,0.599,0.02,0,-0.004,-1.029
1970/01/01/05:36:43.034000,463,403,34000000,,-0.3612,0.091,0.09,0.1,0.599,0.02,0,-0.004,-1.021
1970/01/01/05:36:43.135000,464,403,134000000,,-0.3612,0.09,0.09,0.1,0.599,0.02,0,-0.004,-1.013
1970/01/01/05:36:43.234000,465,403,234000000,,-0.3612,0.089,0.09,0.1,0.599,0.02,0,-0.004,-1.004
1970/01/01/05:36:43.334000,466,403,334000000,,-0.3612,0.088,0.09,0.1,0.599,0.02,0,-0.004,-0.994
1970/01/01/05:36:43.435000,467,403,435000000,,-0.3612,0.088,0.09,0.1,0.599,0.02,0,-0.004,-0.986
1970/01/01/05:36:43.535000,468,403,534000000,,-0.3606,0.087,0.09,0.1,0.599,0.02,0,-0.003,-0.977
1970/01/01/05:36:43.634000,469,403,633000000,,-0.3606,0.086,0.09,0.1,0.599,0.02,0,-0.003,-0.969
1970/01/01/05:36:43.733000,470,403,733000000,,-0.3606,0.085,0.09,0.1,0.599,0.02,0,-0.003,-0.959
1970/01/01/05:36:43.834000,471,403,834000000,,-0.3606,0.085,0.09,0.1,0.599,0.02,0,-0.003,-0.951
1970/01/01/05:36:43.935000,472,403,934000000,,-0.3606,0.084,0.09,0.1,0.599,0.02,0,-0.003,-0.941
1970/01/01/05:36:44.035000,473,404,35000000,,-0.3606,0.083,0.09,0.1,0.599,0.02,0,-0.003,-0.933
1970/01/01/05:36:44.136000,474,404,135000000,,-0.3606,0.082,0.09,0.1,0.599,0.02,0,-0.003,-0.924
1970/01/01/05:36:44.235000,475,404,235000000,,-0.3606,0.082,0.09,0.1,0.599,0.02,0,-0.003,-0.916
1970/01/01/05:36:44.335000,476,404,334000000,,-0.3606,0.081,0.09,0.1,0.599,0.02,0,-0.003,-0.906
1970/01/01/05:36:44.435000,477,404,434000000,,-0.36,0.08,0.09,0.1,0.599,0.02,0,-0.002,-0.898
1970/01/01/05:36:44.535000,478,404,535000000,,-0.36,0.079,0.09,0.1,0.599,0.02,0,-0.002,-0.889
1970/01/01/05:36:44.635000,479,404,634000000,,-0.36,0.078,0.09,0.1,0.599,0.02,0,-0.002,-0.879
1970/01/01/05:36:44.735000,480,404,734000000,,-0.36,0.078,0.09,0.1,0.599,0.02,0,-0.002,-0.871
1970/01/01/05:36:44.835000,481,404,835000000,,-0.36,0.077,0.09,0.1,0.599,0.02,0,-0.002,-0.862
1970/01/01/05:36:44.934000,482,404,934000000,,-0.36,0.076,0.09,0.1,0.599,0.02,0,-0.002,-0.854
1970/01/01/05:36:45.034000,483,405,33000000,,-0.36,0.075,0.09,0.1,0.599,0.02,0,-0.002,-0.845
1970/01/01/05:36:45.134000,484,405,133000000,,-0.36,0.074,0.09,0.1,0.599,0.02,0,-0.002,-0.836
1970/01/01/05:36:45.235000,485,405,235000000,,-0.36,0.074,0.09,0.1,0.599,0.02,0,-0.002,-0.827
1970/01/01/05:36:45.335000,486,405,334000000,,-0.3594,0.073,0.09,0.1,0.599,0.02,0,-0.001,-0.818
1970/01/01/05:36:45.434000,487,405,434000000,,-0.3594,0.072,0.09,0.1,0.599,0.02,0,-0.001,-0.81
1970/01/01/05:36:45.535000,488,405,534000000,,-0.3594,0.071,0.09,0.1,0.599,0.02,0,-0.001,-0.801
1970/01/01/05:36:45.635000,489,405,635000000,,-0.3594,0.07,0.09,0.1,0.599,0.02,0,-0.001,-0.792
1970/01/01/05:36:45.734000,490,405,734000000,,-0.3594,0.07,0.09,0.1,0.599,0.02,0,-0.001,-0.784
1970/01/01/05:36:45.835000,491,405,834000000,,-0.3594,0.069,0.09,0.1,0.599,0.02,0,-0.001,-0.775
1970/01/01/05:36:45.934000,492,405,933000000,,-0.3594,0.068,0.09,0.1,0.599,0.02,0,-0.001,-0.766
1970/01/01/05:36:46.035000,493,406,34000000,,-0.3594,0.067,0.09,0.1,0.599,0.02,0,-0.001,-0.758
1970/01/01/05:36:46.133000,494,406,133000000,,-0.3588,0.067,0.09,0.1,0.599,0.02,0,0,-0.749
1970/01/01/05:36:46.235000,495,406,234000000,,-0.3588,0.066,0.09,0.1,0.599,0.02,0,0,-0.74
1970/01/01/05:36:46.334000,496,406,334000000,,-0.3588,0.065,0.09,0.1,0.599,0.02,0,0,-0.732
1970/01/01/05:36:46.434000,497,406,434000000,,-0.3588,0.064,0.09,0.1,0.599,0.02,0,0,-0.724
1970/01/01/05:36:46.535000,498,406,535000000,,-0.3588,0.063,0.09,0.1,0.599,0.02,0,0,-0.714
1970/01/01/05:36:46.634000,499,406,634000000,,-0.3588,0.063,0.09,0.1,0.599,0.02,0,0,-0.706
1970/01/01/05:36:46.736000,500,406,735000000,,-0.3588,0.062,0.09,0.1,0.599,0.02,0,0,-0.698
1970/01/01/05:36:46.834000,501,406,834000000,,-0.3588,0.061,0.09,0.1,0.599,0.02,0,0,-0.689
1970/01/01/05:36:46.935000,502,406,934000000,,-0.3588,0.06,0.09,0.1,0.599,0.02,0,0,-0.68
1970/01/01/05:36:47.034000,503,407,34000000,,-0.3582,0.059,0.09,0.1,0.599,0.02,0,0.001,-0.671
1970/01/01/05:36:47.135000,504,407,135000000,,-0.3582,0.059,0.09,0.1,0.599,0.02,0,0.001,-0.663
1970/01/01/05:36:47.235000,505,407,235000000,,-0.3582,0.058,0.09,0.1,0.599,0.02,0,0.001,-0.653
1970/01/01/05:36:47.334000,506,407,334000000,,-0.3582,0.057,0.09,0.1,0.599,0.02,0,0.001,-0.645
1970/01/01/05:36:47.434000,507,407,434000000,,-0.3582,0.057,0.09,0.1,0.599,0.02,0,0.001,-0.637
1970/01/01/05:36:47.535000,508,407,534000000,,-0.357,0.056,0.09,0.1,0.598,0.02,0,0.001,-0.628
1970/01/01/05:36:47.634000,509,407,634000000,,-0.357,0.055,0.09,0.1,0.598,0.02,0,0.001,-0.62
1970/01/01/05:36:47.735000,510,407,735000000,,-0.357,0.054,0.09,0.1,0.598,0.02,0,0.001,-0.611
1970/01/01/05:36:47.835000,511,407,834000000,,-0.357,0.053,0.09,0.1,0.598,0.02,0,0.001,-0.602
1970/01/01/05:36:47.935000,512,407,934000000,,-0.357,0.052,0.09,0.1,0.598,0.02,0,0.001,-0.593
1970/01/01/05:36:48.035000,513,408,34000000,,-0.3564,0.052,0.09,0.1,0.598,0.02,0,0.002,-0.585
1970/01/01/05:36:48.135000,514,408,135000000,,-0.3564,0.051,0.09,0.1,0.598,0.02,0,0.002,-0.575
1970/01/01/05:36:48.236000,515,408,235000000,,-0.3564,0.05,0.09,0.1,0.598,0.02,0,0.002,-0.567
1970/01/01/05:36:48.335000,516,408,334000000,,-0.3564,0.05,0.09,0.1,0.598,0.02,0,0.002,-0.559
1970/01/01/05:36:48.434000,517,408,433000000,,-0.3564,0.048,0.09,0.1,0.598,0.02,0,0.002,-0.548
1970/01/01/05:36:48.535000,518,408,535000000,,-0.3564,0.048,0.09,0.1,0.598,0.02,0,0.002,-0.54
1970/01/01/05:36:48.634000,519,408,634000000,,-0.3564,0.047,0.09,0.1,0.598,0.02,0,0.002,-0.53
1970/01/01/05:36:48.734000,520,408,734000000,,-0.3564,0.046,0.09,0.1,0.598,0.02,0,0.002,-0.522
1970/01/01/05:36:48.834000,521,408,834000000,,-0.3564,0.045,0.09,0.1,0.598,0.02,0,0.002,-0.513
1970/01/01/05:36:48.935000,522,408,935000000,,-0.3564,0.044,0.09,0.1,0.598,0.02,0,0.002,-0.504
1970/01/01/05:36:49.035000,523,409,35000000,,-0.3564,0.044,0.09,0.1,0.598,0.02,0,0.002,-0.496
1970/01/01/05:36:49.135000,524,409,135000000,,-0.3564,0.043,0.09,0.1,0.598,0.02,0,0.002,-0.487
1970/01/01/05:36:49.234000,525,409,234000000,,-0.3564,0.043,0.09,0.1,0.598,0.02,0,0.002,-0.485
1970/01/01/05:36:49.334000,526,409,334000000,,-0.3564,0.044,0.09,0.1,0.598,0.02,0,0.002,-0.485
1970/01/01/05:36:49.435000,527,409,435000000,,-0.3564,0.044,0.09,0.1,0.598,0.02,0,0.002,-0.485
1970/01/01/05:36:49.535000,528,409,535000000,,-0.3564,0.044,0.09,0.1,0.598,0.02,0,0.002,-0.485
1970/01/01/05:36:49.635000,529,409,635000000,,-0.3564,0.044,0.09,0.1,0.598,0.02,0,0.002,-0.485
1970/01/01/05:36:49.735000,530,409,734000000,,-0.3564,0.044,0.09,0.1,0.598,0.02,0,0.002,-0.485
1970/01/01/05:36:49.834000,531,409,834000000,,-0.3564,0.044,0.09,0.1,0.598,0.02,0,0.002,-0.485
1970/01/01/05:36:49.934000,532,409,934000000,,-0.3582,0.044,0.09,0.1,0.599,0.02,0,0.001,-0.485
1970/01/01/05:36:50.035000,533,410,35000000,,-0.3582,0.044,0.09,0.1,0.599,0.02,0,0.001,-0.485
1970/01/01/05:36:50.135000,534,410,134000000,,-0.3582,0.044,0.09,0.1,0.599,0.02,0,0.001,-0.485
1970/01/01/05:36:50.235000,535,410,235000000,,-0.3582,0.044,0.09,0.1,0.599,0.02,0,0.001,-0.485
1970/01/01/05:36:50.335000,536,410,335000000,,-0.3582,0.044,0.09,0.1,0.599,0.02,0,0.001,-0.485
1970/01/01/05:36:50.435000,537,410,434000000,,-0.3582,0.044,0.09,0.1,0.599,0.02,0,0.001,-0.485
1970/01/01/05:36:50.535000,538,410,534000000,,-0.3588,0.044,0.09,0.1,0.599,0.02,0,0,-0.485
1970/01/01/05:36:50.634000,539,410,634000000,,-0.3588,0.044,0.09,0.1,0.599,0.02,0,0,-0.485
1970/01/01/05:36:50.735000,540,410,734000000,,-0.3588,0.044,0.09,0.1,0.599,0.02,0,0,-0.485
1970/01/01/05:36:50.834000,541,410,834000000,,-0.3588,0.044,0.09,0.1,0.599,0.02,0,0,-0.486
1970/01/01/05:36:50.934000,542,410,933000000,,-0.3588,0.044,0.09,0.1,0.599,0.02,0,0,-0.486
1970/01/01/05:36:51.034000,543,411,34000000,,-0.3588,0.044,0.09,0.1,0.599,0.02,0,0,-0.486
1970/01/01/05:36:51.135000,544,411,135000000,,-0.3594,0.044,0.09,0.1,0.599,0.02,0,-0.001,-0.486
1970/01/01/05:36:51.235000,545,411,235000000,,-0.3594,0.044,0.09,0.1,0.599,0.02,0,-0.001,-0.486
1970/01/01/05:36:51.335000,546,411,335000000,,-0.3606,0.044,0.09,0.1,0.6,0.02,0,-0.001,-0.486
1970/01/01/05:36:51.436000,547,411,435000000,,-0.3606,0.044,0.09,0.1,0.6,0.02,0,-0.001,-0.486
1970/01/01/05:36:51.535000,548,411,534000000,,-0.3606,0.044,0.09,0.1,0.6,0.02,0,-0.001,-0.486
1970/01/01/05:36:51.634000,549,411,634000000,,-0.3606,0.044,0.09,0.1,0.6,0.02,0,-0.001,-0.486
1970/01/01/05:36:51.735000,550,411,734000000,,-0.3612,0.044,0.09,0.1,0.6,0.02,0,-0.002,-0.486
1970/01/01/05:36:51.835000,551,411,834000000,,-0.3612,0.044,0.09,0.1,0.6,0.02,0,-0.002,-0.486
1970/01/01/05:36:51.935000,552,411,934000000,,-0.3612,0.044,0.09,0.1,0.6,0.02,0,-0.002,-0.486
1970/01/01/05:36:52.036000,553,412,35000000,,-0.3612,0.044,0.09,0.1,0.6,0.02,0,-0.002,-0.486
1970/01/01/05:36:52.135000,554,412,134000000,,-0.3612,0.044,0.09,0.1,0.6,0.02,0,-0.002,-0.486
1970/01/01/05:36:52.234000,555,412,234000000,,-0.3612,0.044,0.09,0.1,0.6,0.02,0,-0.002,-0.487
1970/01/01/05:36:52.336000,556,412,335000000,,-0.3612,0.044,0.09,0.1,0.6,0.02,0,-0.002,-0.487
1970/01/01/05:36:52.435000,557,412,435000000,,-0.3618,0.044,0.09,0.1,0.6,0.02,0,-0.003,-0.487
1970/01/01/05:36:52.533000,558,412,533000000,,-0.3618,0.044,0.09,0.1,0.6,0.02,0,-0.003,-0.487
1970/01/01/05:36:52.635000,559,412,635000000,,-0.3618,0.044,0.09,0.1,0.6,0.02,0,-0.003,-0.487
1970/01/01/05:36:52.734000,560,412,734000000,,-0.363,0.044,0.09,0.1,0.601,0.02,0,-0.003,-0.487
1970/01/01/05:36:52.835000,561,412,835000000,,-0.363,0.044,0.09,0.1,0.601,0.02,0,-0.003,-0.487
1970/01/01/05:36:52.935000,562,412,934000000,,-0.363,0.044,0.09,0.1,0.601,0.02,0,-0.003,-0.487
1970/01/01/05:36:53.034000,563,413,34000000,,-0.3636,0.044,0.09,0.1,0.601,0.02,0,-0.004,-0.487
