time,.header.seq,.header.stamp.secs,.header.stamp.nsecs,.header.frame_id,.angular_vel,.linear_vel,.kp_dist,.kd_dist,.kp_angle,.kd_angle,.y_offset,.fork_angle,.dist_2_pallet
1970/01/01/05:31:34.729000,1,0,0,,0.0515,0.294,0.09,0.1,-0.696,0.02,0,0.622,3.279
1970/01/01/05:31:34.831000,2,0,0,,0.0464,0.292,0.09,0.1,-0.69,0.02,0,0.623,3.261
1970/01/01/05:31:34.929000,3,0,0,,0.0468,0.291,0.09,0.1,-0.688,0.02,0,0.62,3.248
1970/01/01/05:31:35.030000,4,0,0,,0.0433,0.289,0.09,0.1,-0.685,0.02,0,0.622,3.231
1970/01/01/05:31:35.129000,5,0,0,,0.0391,0.287,0.09,0.1,-0.683,0.02,0,0.626,3.211
1970/01/01/05:31:35.230000,6,0,0,,0.0335,0.285,0.09,0.1,-0.681,0.02,0,0.632,3.19
1970/01/01/05:31:35.330000,7,0,0,,0.0274,0.283,0.09,0.1,-0.68,0.02,0,0.64,3.17
1970/01/01/05:31:35.430000,8,0,0,,0.0199,0.281,0.09,0.1,-0.679,0.02,0,0.65,3.145
1970/01/01/05:31:35.530000,9,0,0,,0.0118,0.278,0.09,0.1,-0.678,0.02,0,0.661,3.121
1970/01/01/05:31:35.629000,10,0,0,,0.0043,0.276,0.09,0.1,-0.677,0.02,0,0.671,3.097
1970/01/01/05:31:35.731000,11,0,0,,0.0038,0.274,0.09,0.1,-0.676,0.02,0,0.682,3.073
1970/01/01/05:31:35.828000,12,0,0,,0.0139,0.272,0.09,0.1,-0.674,0.02,0,0.695,3.047
1970/01/01/05:31:35.930000,13,0,0,,0.0219,0.269,0.09,0.1,-0.672,0.02,0,0.705,3.022
1970/01/01/05:31:36.031000,14,0,0,,0.0287,0.268,0.09,0.1,-0.671,0.02,0,0.714,2.999
1970/01/01/05:31:36.131000,15,0,0,,0.0372,0.265,0.09,0.1,-0.669,0.02,0,0.725,2.974
1970/01/01/05:31:36.229000,16,0,0,,0.0432,0.263,0.09,0.1,-0.668,0.02,0,0.733,2.951
1970/01/01/05:31:36.330000,17,0,0,,0.0522,0.26,0.09,0.1,-0.664,0.02,0,0.743,2.924
1970/01/01/05:31:36.429000,18,0,0,,0.0598,0.259,0.09,0.1,-0.66,0.02,0,0.751,2.9
1970/01/01/05:31:36.529000,19,0,0,,0.0678,0.256,0.09,0.1,-0.654,0.02,0,0.758,2.876
1970/01/01/05:31:36.628000,20,0,0,,0.0754,0.254,0.09,0.1,-0.647,0.02,0,0.764,2.853
1970/01/01/05:31:36.729000,21,0,0,,0.0822,0.253,0.09,0.1,-0.639,0.02,0,0.768,2.833
1970/01/01/05:31:36.831000,22,0,0,,0.0886,0.252,0.09,0.1,-0.63,0.02,0,0.771,2.815
1970/01/01/05:31:36.929000,23,0,0,,0.0939,0.25,0.09,0.1,-0.619,0.02,0,0.771,2.799
1970/01/01/05:31:37.029000,24,0,0,,0.0983,0.25,0.09,0.1,-0.608,0.02,0,0.77,2.787
1970/01/01/05:31:37.130000,25,0,0,,0.1012,0.249,0.09,0.1,-0.596,0.02,0,0.766,2.78
1970/01/01/05:31:37.231000,26,0,0,,0.1017,0.25,0.09,0.1,-0.585,0.02,0,0.759,2.778
1970/01/01/05:31:37.331000,27,0,0,,0.101,0.251,0.09,0.1,-0.574,0.02,0,0.75,2.781
1970/01/01/05:31:37.430000,28,0,0,,0.0984,0.252,0.09,0.1,-0.565,0.02,0,0.739,2.791
1970/01/01/05:31:37.531000,29,0,0,,0.0955,0.253,0.09,0.1,-0.555,0.02,0,0.727,2.8
1970/01/01/05:31:37.631000,30,0,0,,0.0923,0.254,0.09,0.1,-0.546,0.02,0,0.715,2.808
1970/01/01/05:31:37.729000,31,0,0,,0.0909,0.254,0.09,0.1,-0.535,0.02,0,0.705,2.814
1970/01/01/05:31:37.831000,32,0,0,,0.0891,0.254,0.09,0.1,-0.524,0.02,0,0.694,2.819
1970/01/01/05:31:37.931000,33,0,0,,0.0866,0.255,0.09,0.1,-0.515,0.02,0,0.683,2.826
1970/01/01/05:31:38.031000,34,0,0,,0.0842,0.256,0.09,0.1,-0.504,0.02,0,0.671,2.833
1970/01/01/05:31:38.129000,35,0,0,,0.0816,0.256,0.09,0.1,-0.494,0.02,0,0.659,2.84
1970/01/01/05:31:38.230000,36,0,0,,0.0794,0.257,0.09,0.1,-0.484,0.02,0,0.648,2.845
1970/01/01/05:31:38.330000,37,0,0,,0.0768,0.257,0.09,0.1,-0.474,0.02,0,0.636,2.851
1970/01/01/05:31:38.429000,38,0,0,,0.0744,0.258,0.09,0.1,-0.465,0.02,0,0.625,2.856
1970/01/01/05:31:38.530000,39,0,0,,0.0701,0.259,0.09,0.1,-0.457,0.02,0,0.61,2.866
1970/01/01/05:31:38.630000,40,0,0,,0.0658,0.26,0.09,0.1,-0.45,0.02,0,0.596,2.875
1970/01/01/05:31:38.730000,41,0,0,,0.0623,0.26,0.09,0.1,-0.441,0.02,0,0.582,2.881
1970/01/01/05:31:38.831000,42,0,0,,0.0552,0.262,0.09,0.1,-0.436,0.02,0,0.562,2.895
1970/01/01/05:31:38.929000,43,0,0,,0.0534,0.261,0.09,0.1,-0.427,0.02,0,0.552,2.897
1970/01/01/05:31:39.030000,44,0,0,,0.0441,0.264,0.09,0.1,-0.424,0.02,0,0.527,2.913
1970/01/01/05:31:39.130000,45,0,0,,0.0426,0.262,0.09,0.1,-0.414,0.02,0,0.517,2.913
1970/01/01/05:31:39.231000,46,0,0,,0.0359,0.264,0.09,0.1,-0.409,0.02,0,0.496,2.923
1970/01/01/05:31:39.329000,47,0,0,,0.028,0.265,0.09,0.1,-0.406,0.02,0,0.474,2.933
1970/01/01/05:31:39.430000,48,0,0,,0.0272,0.264,0.09,0.1,-0.395,0.02,0,0.464,2.931
1970/01/01/05:31:39.530000,49,0,0,,0.0217,0.265,0.09,0.1,-0.39,0.02,0,0.445,2.937
1970/01/01/05:31:39.630000,50,0,0,,0.0111,0.266,0.09,0.1,-0.39,0.02,0,0.417,2.948
1970/01/01/05:31:39.729000,51,0,0,,0.0074,0.265,0.09,0.1,-0.383,0.02,0,0.402,2.946
1970/01/01/05:31:39.830000,52,0,0,,0.0071,0.264,0.09,0.1,-0.373,0.02,0,0.392,2.942
1970/01/01/05:31:39.931000,53,0,0,,0.0011,0.265,0.09,0.1,-0.369,0.02,0,0.371,2.945
1970/01/01/05:31:40.031000,54,0,0,,0.0087,0.266,0.09,0.1,-0.369,0.02,0,0.344,2.949
1970/01/01/05:31:40.129000,55,0,0,,0.0128,0.265,0.09,0.1,-0.363,0.02,0,0.327,2.946
1970/01/01/05:31:40.230000,56,0,0,,0.0134,0.264,0.09,0.1,-0.354,0.02,0,0.316,2.94
1970/01/01/05:31:40.331000,57,0,0,,0.0151,0.264,0.09,0.1,-0.347,0.02,0,0.303,2.935
1970/01/01/05:31:40.431000,58,0,0,,0.0248,0.264,0.09,0.1,-0.347,0.02,0,0.274,2.934
1970/01/01/05:31:40.531000,59,0,0,,0.0338,0.263,0.09,0.1,-0.347,0.02,0,0.248,2.93
1970/01/01/05:31:40.630000,60,0,0,,0.0348,0.262,0.09,0.1,-0.339,0.02,0,0.236,2.921
1970/01/01/05:31:40.730000,61,0,0,,0.0343,0.261,0.09,0.1,-0.33,0.02,0,0.226,2.912
1970/01/01/05:31:40.830000,62,0,0,,0.039,0.261,0.09,0.1,-0.328,0.02,0,0.208,2.905
1970/01/01/05:31:40.930000,63,0,0,,0.0466,0.26,0.09,0.1,-0.327,0.02,0,0.183,2.897
1970/01/01/05:31:41.031000,64,0,0,,0.0512,0.259,0.09,0.1,-0.324,0.02,0,0.165,2.887
1970/01/01/05:31:41.131000,65,0,0,,0.0508,0.258,0.09,0.1,-0.316,0.02,0,0.155,2.876
1970/01/01/05:31:41.230000,66,0,0,,0.0506,0.257,0.09,0.1,-0.309,0.02,0,0.145,2.865
1970/01/01/05:31:41.331000,67,0,0,,0.057,0.256,0.09,0.1,-0.309,0.02,0,0.123,2.854
1970/01/01/05:31:41.431000,68,0,0,,0.0638,0.254,0.09,0.1,-0.309,0.02,0,0.101,2.841
1970/01/01/05:31:41.531000,69,0,0,,0.0658,0.253,0.09,0.1,-0.304,0.02,0,0.087,2.828
1970/01/01/05:31:41.631000,70,0,0,,0.0653,0.252,0.09,0.1,-0.297,0.02,0,0.077,2.815
1970/01/01/05:31:41.730000,71,0,0,,0.0661,0.251,0.09,0.1,-0.292,0.02,0,0.065,2.802
1970/01/01/05:31:41.829000,72,0,0,,0.072,0.249,0.09,0.1,-0.292,0.02,0,0.044,2.786
1970/01/01/05:31:41.930000,73,0,0,,0.0781,0.248,0.09,0.1,-0.292,0.02,0,0.023,2.769
1970/01/01/05:31:42.029000,74,0,0,,0.0777,0.247,0.09,0.1,-0.286,0.02,0,0.014,2.755
1970/01/01/05:31:42.130000,75,0,0,,0.0772,0.245,0.09,0.1,-0.28,0.02,0,0.004,2.741
1970/01/01/05:31:42.231000,76,0,0,,0.0793,0.244,0.09,0.1,-0.277,0.02,0,0.01,2.725
1970/01/01/05:31:42.331000,77,0,0,,0.0846,0.242,0.09,0.1,-0.277,0.02,0,0.03,2.706
1970/01/01/05:31:42.430000,78,0,0,,0.0888,0.24,0.09,0.1,-0.276,0.02,0,0.047,2.687
1970/01/01/05:31:42.530000,79,0,0,,0.0885,0.239,0.09,0.1,-0.271,0.02,0,0.056,2.672
1970/01/01/05:31:42.630000,80,0,0,,0.088,0.237,0.09,0.1,-0.266,0.02,0,0.065,2.656
1970/01/01/05:31:42.731000,81,0,0,,0.0914,0.235,0.09,0.1,-0.265,0.02,0,0.081,2.637
1970/01/01/05:31:42.829000,82,0,0,,0.0961,0.233,0.09,0.1,-0.265,0.02,0,0.099,2.616
1970/01/01/05:31:42.930000,83,0,0,,0.0975,0.232,0.09,0.1,-0.262,0.02,0,0.111,2.598
1970/01/01/05:31:43.031000,84,0,0,,0.0968,0.231,0.09,0.1,-0.257,0.02,0,0.12,2.582
1970/01/01/05:31:43.130000,85,0,0,,0.0986,0.229,0.09,0.1,-0.256,0.02,0,0.13,2.563
1970/01/01/05:31:43.228000,86,0,0,,0.1007,0.227,0.09,0.1,-0.256,0.02,0,0.138,2.545
1970/01/01/05:31:43.330000,87,0,0,,0.1018,0.225,0.09,0.1,-0.256,0.02,0,0.142,2.526
1970/01/01/05:31:43.430000,88,0,0,,0.1028,0.225,0.09,0.1,-0.257,0.02,0,0.143,2.512
1970/01/01/05:31:43.531000,89,0,0,,0.1031,0.224,0.09,0.1,-0.259,0.02,0,0.139,2.502
1970/01/01/05:31:43.631000,90,0,0,,0.1007,0.224,0.09,0.1,-0.259,0.02,0,0.129,2.498
1970/01/01/05:31:43.730000,91,0,0,,0.0982,0.225,0.09,0.1,-0.26,0.02,0,0.117,2.497
1970/01/01/05:31:43.832000,92,0,0,,0.0959,0.225,0.09,0.1,-0.262,0.02,0,0.103,2.497
1970/01/01/05:31:43.932000,93,0,0,,0.0929,0.225,0.09,0.1,-0.264,0.02,0,0.087,2.5
1970/01/01/05:31:44.030000,94,0,0,,0.0893,0.225,0.09,0.1,-0.265,0.02,0,0.071,2.502
1970/01/01/05:31:44.130000,95,0,0,,0.0865,0.225,0.09,0.1,-0.267,0.02,0,0.056,2.503
1970/01/01/05:31:44.231000,96,0,0,,0.0828,0.225,0.09,0.1,-0.268,0.02,0,0.04,2.504
1970/01/01/05:31:44.331000,97,0,0,,0.0802,0.225,0.09,0.1,-0.27,0.02,0,0.026,2.504
1970/01/01/05:31:44.429000,98,0,0,,0.0767,0.225,0.09,0.1,-0.271,0.02,0,0.011,2.503
1970/01/01/05:31:44.530000,99,0,0,,0.0732,0.225,0.09,0.1,-0.272,0.02,0,0.004,2.502
1970/01/01/05:31:44.630000,100,0,0,,0.0701,0.225,0.09,0.1,-0.274,0.02,0,0.019,2.5
1970/01/01/05:31:44.730000,101,0,0,,0.0668,0.225,0.09,0.1,-0.275,0.02,0,0.033,2.498
1970/01/01/05:31:44.831000,102,0,0,,0.0637,0.224,0.09,0.1,-0.277,0.02,0,0.048,2.495
1970/01/01/05:31:44.930000,103,0,0,,0.0606,0.224,0.09,0.1,-0.278,0.02,0,0.061,2.491
1970/01/01/05:31:45.031000,104,0,0,,0.0572,0.223,0.09,0.1,-0.279,0.02,0,0.075,2.487
1970/01/01/05:31:45.130000,105,0,0,,0.0545,0.223,0.09,0.1,-0.281,0.02,0,0.088,2.483
1970/01/01/05:31:45.230000,106,0,0,,0.0508,0.223,0.09,0.1,-0.282,0.02,0,0.103,2.478
1970/01/01/05:31:45.330000,107,0,0,,0.0472,0.222,0.09,0.1,-0.283,0.02,0,0.117,2.473
1970/01/01/05:31:45.431000,108,0,0,,0.0442,0.221,0.09,0.1,-0.284,0.02,0,0.129,2.467
1970/01/01/05:31:45.530000,109,0,0,,0.0407,0.221,0.09,0.1,-0.285,0.02,0,0.143,2.461
1970/01/01/05:31:45.630000,110,0,0,,0.0374,0.22,0.09,0.1,-0.286,0.02,0,0.156,2.454
1970/01/01/05:31:45.731000,111,0,0,,0.0341,0.22,0.09,0.1,-0.287,0.02,0,0.169,2.447
1970/01/01/05:31:45.831000,112,0,0,,0.031,0.219,0.09,0.1,-0.288,0.02,0,0.181,2.439
1970/01/01/05:31:45.930000,113,0,0,,0.0274,0.218,0.09,0.1,-0.289,0.02,0,0.195,2.432
1970/01/01/05:31:46.052000,114,0,0,,0.0246,0.217,0.09,0.1,-0.29,0.02,0,0.206,2.423
1970/01/01/05:31:46.131000,115,0,0,,0.0212,0.217,0.09,0.1,-0.291,0.02,0,0.219,2.415
1970/01/01/05:31:46.230000,116,0,0,,0.0183,0.216,0.09,0.1,-0.292,0.02,0,0.23,2.406
1970/01/01/05:31:46.330000,117,0,0,,0.0149,0.215,0.09,0.1,-0.293,0.02,0,0.243,2.396
1970/01/01/05:31:46.430000,118,0,0,,0.0114,0.214,0.09,0.1,-0.293,0.02,0,0.255,2.387
1970/01/01/05:31:46.532000,119,0,0,,0.0082,0.213,0.09,0.1,-0.294,0.02,0,0.267,2.377
1970/01/01/05:31:46.631000,120,0,0,,0.0052,0.212,0.09,0.1,-0.295,0.02,0,0.278,2.367
1970/01/01/05:31:46.730000,121,0,0,,0.0017,0.211,0.09,0.1,-0.295,0.02,0,0.29,2.357
1970/01/01/05:31:46.829000,122,0,0,,0.001,0.21,0.09,0.1,-0.296,0.02,0,0.3,2.347
1970/01/01/05:31:46.929000,123,0,0,,0.0042,0.209,0.09,0.1,-0.297,0.02,0,0.312,2.336
1970/01/01/05:31:47.029000,124,0,0,,0.0072,0.208,0.09,0.1,-0.297,0.02,0,0.322,2.326
1970/01/01/05:31:47.131000,125,0,0,,0.0102,0.207,0.09,0.1,-0.298,0.02,0,0.333,2.315
1970/01/01/05:31:47.230000,126,0,0,,0.0132,0.206,0.09,0.1,-0.298,0.02,0,0.343,2.304
1970/01/01/05:31:47.330000,127,0,0,,0.016,0.205,0.09,0.1,-0.299,0.02,0,0.353,2.293
1970/01/01/05:31:47.429000,128,0,0,,0.0187,0.204,0.09,0.1,-0.3,0.02,0,0.363,2.282
1970/01/01/05:31:47.529000,129,0,0,,0.0217,0.203,0.09,0.1,-0.3,0.02,0,0.373,2.271
1970/01/01/05:31:47.629000,130,0,0,,0.0245,0.202,0.09,0.1,-0.301,0.02,0,0.383,2.259
1970/01/01/05:31:47.731000,131,0,0,,0.0275,0.201,0.09,0.1,-0.301,0.02,0,0.393,2.248
1970/01/01/05:31:47.830000,132,0,0,,0.0302,0.2,0.09,0.1,-0.301,0.02,0,0.402,2.237
1970/01/01/05:31:47.929000,133,0,0,,0.0329,0.199,0.09,0.1,-0.301,0.02,0,0.411,2.225
1970/01/01/05:31:48.030000,134,0,0,,0.0355,0.198,0.09,0.1,-0.302,0.02,0,0.42,2.214
1970/01/01/05:31:48.131000,135,0,0,,0.0385,0.197,0.09,0.1,-0.302,0.02,0,0.43,2.202
1970/01/01/05:31:48.230000,136,0,0,,0.0409,0.196,0.09,0.1,-0.302,0.02,0,0.438,2.19
1970/01/01/05:31:48.330000,137,0,0,,0.0436,0.195,0.09,0.1,-0.302,0.02,0,0.447,2.179
1970/01/01/05:31:48.430000,138,0,0,,0.0462,0.194,0.09,0.1,-0.303,0.02,0,0.456,2.167
1970/01/01/05:31:48.530000,139,0,0,,0.0486,0.193,0.09,0.1,-0.303,0.02,0,0.464,2.155
1970/01/01/05:31:48.629000,140,0,0,,0.0513,0.192,0.09,0.1,-0.303,0.02,0,0.473,2.143
1970/01/01/05:31:48.730000,141,0,0,,0.0538,0.191,0.09,0.1,-0.303,0.02,0,0.481,2.132
1970/01/01/05:31:48.831000,142,0,0,,0.0562,0.19,0.09,0.1,-0.303,0.02,0,0.489,2.12
1970/01/01/05:31:48.930000,143,0,0,,0.0586,0.189,0.09,0.1,-0.303,0.02,0,0.497,2.108
1970/01/01/05:31:49.030000,144,0,0,,0.061,0.188,0.09,0.1,-0.303,0.02,0,0.505,2.097
1970/01/01/05:31:49.130000,145,0,0,,0.0635,0.186,0.09,0.1,-0.303,0.02,0,0.513,2.085
1970/01/01/05:31:49.230000,146,0,0,,0.0662,0.185,0.09,0.1,-0.303,0.02,0,0.522,2.073
1970/01/01/05:31:49.331000,147,0,0,,0.0683,0.184,0.09,0.1,-0.303,0.02,0,0.529,2.061
1970/01/01/05:31:49.429000,148,0,0,,0.0707,0.183,0.09,0.1,-0.303,0.02,0,0.537,2.05
1970/01/01/05:31:49.530000,149,0,0,,0.0729,0.182,0.09,0.1,-0.303,0.02,0,0.544,2.038
1970/01/01/05:31:49.630000,150,0,0,,0.075,0.181,0.09,0.1,-0.302,0.02,0,0.551,2.026
1970/01/01/05:31:49.730000,151,0,0,,0.0772,0.18,0.09,0.1,-0.302,0.02,0,0.558,2.015
1970/01/01/05:31:49.829000,152,0,0,,0.0793,0.179,0.09,0.1,-0.302,0.02,0,0.565,2.003
1970/01/01/05:31:49.930000,153,0,0,,0.0814,0.178,0.09,0.1,-0.302,0.02,0,0.572,1.992
1970/01/01/05:31:50.030000,154,0,0,,0.0835,0.177,0.09,0.1,-0.302,0.02,0,0.579,1.98
1970/01/01/05:31:50.130000,155,0,0,,0.0856,0.176,0.09,0.1,-0.302,0.02,0,0.586,1.968
1970/01/01/05:31:50.231000,156,0,0,,0.0877,0.175,0.09,0.1,-0.301,0.02,0,0.593,1.957
1970/01/01/05:31:50.330000,157,0,0,,0.0893,0.174,0.09,0.1,-0.301,0.02,0,0.598,1.946
1970/01/01/05:31:50.430000,158,0,0,,0.0905,0.173,0.09,0.1,-0.299,0.02,0,0.602,1.935
1970/01/01/05:31:50.531000,159,0,0,,0.0905,0.172,0.09,0.1,-0.297,0.02,0,0.602,1.925
1970/01/01/05:31:50.630000,160,0,0,,0.0897,0.172,0.09,0.1,-0.296,0.02,0,0.599,1.918
1970/01/01/05:31:50.728000,161,0,0,,0.0895,0.171,0.09,0.1,-0.29,0.02,0,0.599,1.907
1970/01/01/05:31:50.829000,162,0,0,,0.0881,0.17,0.09,0.1,-0.287,0.02,0,0.594,1.901
1970/01/01/05:31:50.930000,163,0,0,,0.0863,0.17,0.09,0.1,-0.282,0.02,0,0.588,1.896
1970/01/01/05:31:51.046000,164,0,0,,0.084,0.17,0.09,0.1,-0.278,0.02,0,0.58,1.893
1970/01/01/05:31:51.130000,165,0,0,,0.0821,0.17,0.09,0.1,-0.271,0.02,0,0.574,1.889
1970/01/01/05:31:51.230000,166,0,0,,0.0789,0.169,0.09,0.1,-0.262,0.02,0,0.563,1.886
1970/01/01/05:31:51.331000,167,0,0,,0.0749,0.17,0.09,0.1,-0.26,0.02,0,0.547,1.89
1970/01/01/05:31:51.430000,168,0,0,,0.0718,0.17,0.09,0.1,-0.256,0.02,0,0.536,1.892
1970/01/01/05:31:51.530000,169,0,0,,0.0698,0.17,0.09,0.1,-0.25,0.02,0,0.529,1.889
1970/01/01/05:31:51.631000,170,0,0,,0.066,0.171,0.09,0.1,-0.249,0.02,0,0.513,1.894
1970/01/01/05:31:51.731000,171,0,0,,0.0622,0.171,0.09,0.1,-0.246,0.02,0,0.498,1.895
1970/01/01/05:31:51.829000,172,0,0,,0.0602,0.17,0.09,0.1,-0.239,0.02,0,0.491,1.892
1970/01/01/05:31:51.929000,173,0,0,,0.0573,0.171,0.09,0.1,-0.237,0.02,0,0.478,1.894
1970/01/01/05:31:52.031000,174,0,0,,0.0536,0.171,0.09,0.1,-0.236,0.02,0,0.462,1.896
1970/01/01/05:31:52.130000,175,0,0,,0.0518,0.17,0.09,0.1,-0.229,0.02,0,0.455,1.892
1970/01/01/05:31:52.230000,176,0,0,,0.0496,0.17,0.09,0.1,-0.225,0.02,0,0.445,1.892
1970/01/01/05:31:52.330000,177,0,0,,0.0454,0.171,0.09,0.1,-0.225,0.02,0,0.425,1.894
1970/01/01/05:31:52.431000,178,0,0,,0.043,0.17,0.09,0.1,-0.22,0.02,0,0.415,1.891
1970/01/01/05:31:52.530000,179,0,0,,0.0415,0.169,0.09,0.1,-0.214,0.02,0,0.408,1.887
1970/01/01/05:31:52.630000,180,0,0,,0.0384,0.17,0.09,0.1,-0.213,0.02,0,0.392,1.887
1970/01/01/05:31:52.730000,181,0,0,,0.0348,0.17,0.09,0.1,-0.213,0.02,0,0.375,1.887
1970/01/01/05:31:52.830000,182,0,0,,0.0335,0.169,0.09,0.1,-0.207,0.02,0,0.369,1.882
1970/01/01/05:31:52.932000,183,0,0,,0.0324,0.169,0.09,0.1,-0.201,0.02,0,0.362,1.878
1970/01/01/05:31:53.029000,184,0,0,,0.0299,0.169,0.09,0.1,-0.2,0.02,0,0.348,1.877
1970/01/01/05:31:53.130000,185,0,0,,0.0267,0.169,0.09,0.1,-0.2,0.02,0,0.332,1.875
1970/01/01/05:31:53.231000,186,0,0,,0.025,0.168,0.09,0.1,-0.195,0.02,0,0.323,1.871
1970/01/01/05:31:53.331000,187,0,0,,0.024,0.167,0.09,0.1,-0.19,0.02,0,0.316,1.866
1970/01/01/05:31:53.429000,188,0,0,,0.0228,0.167,0.09,0.1,-0.186,0.02,0,0.308,1.862
1970/01/01/05:31:53.530000,189,0,0,,0.0199,0.167,0.09,0.1,-0.186,0.02,0,0.291,1.859
1970/01/01/05:31:53.631000,190,0,0,,0.0175,0.167,0.09,0.1,-0.184,0.02,0,0.278,1.855
1970/01/01/05:31:53.729000,191,0,0,,0.0167,0.166,0.09,0.1,-0.178,0.02,0,0.272,1.85
1970/01/01/05:31:53.830000,192,0,0,,0.016,0.165,0.09,0.1,-0.173,0.02,0,0.265,1.844
1970/01/01/05:31:53.929000,193,0,0,,0.0136,0.165,0.09,0.1,-0.173,0.02,0,0.25,1.84
1970/01/01/05:31:54.031000,194,0,0,,0.0106,0.165,0.09,0.1,-0.173,0.02,0,0.232,1.835
1970/01/01/05:31:54.130000,195,0,0,,0.0097,0.164,0.09,0.1,-0.167,0.02,0,0.225,1.829
1970/01/01/05:31:54.229000,196,0,0,,0.0093,0.163,0.09,0.1,-0.162,0.02,0,0.219,1.823
1970/01/01/05:31:54.330000,197,0,0,,0.0073,0.163,0.09,0.1,-0.161,0.02,0,0.205,1.818
1970/01/01/05:31:54.430000,198,0,0,,0.005,0.163,0.09,0.1,-0.161,0.02,0,0.19,1.813
1970/01/01/05:31:54.530000,199,0,0,,0.0044,0.162,0.09,0.1,-0.156,0.02,0,0.184,1.806
1970/01/01/05:31:54.630000,200,0,0,,0.004,0.161,0.09,0.1,-0.151,0.02,0,0.177,1.8
1970/01/01/05:31:54.728000,201,0,0,,0.0025,0.161,0.09,0.1,-0.15,0.02,0,0.165,1.794
1970/01/01/05:31:54.830000,202,0,0,,0.0004,0.16,0.09,0.1,-0.15,0.02,0,0.151,1.787
1970/01/01/05:31:54.930000,203,0,0,,0.0006,0.16,0.09,0.1,-0.147,0.02,0,0.142,1.781
1970/01/01/05:31:55.028000,204,0,0,,0.001,0.159,0.09,0.1,-0.142,0.02,0,0.135,1.774
1970/01/01/05:31:55.130000,205,0,0,,0.0016,0.158,0.09,0.1,-0.139,0.02,0,0.127,1.767
1970/01/01/05:31:55.231000,206,0,0,,0.0033,0.158,0.09,0.1,-0.139,0.02,0,0.113,1.76
1970/01/01/05:31:55.329000,207,0,0,,0.0049,0.157,0.09,0.1,-0.138,0.02,0,0.101,1.753
1970/01/01/05:31:55.431000,208,0,0,,0.0052,0.156,0.09,0.1,-0.134,0.02,0,0.095,1.746
1970/01/01/05:31:55.530000,209,0,0,,0.0054,0.156,0.09,0.1,-0.13,0.02,0,0.088,1.739
1970/01/01/05:31:55.631000,210,0,0,,0.0066,0.155,0.09,0.1,-0.129,0.02,0,0.076,1.733
1970/01/01/05:31:55.729000,211,0,0,,0.0081,0.154,0.09,0.1,-0.129,0.02,0,0.064,1.725
1970/01/01/05:31:55.830000,212,0,0,,0.0083,0.154,0.09,0.1,-0.125,0.02,0,0.058,1.717
1970/01/01/05:31:55.930000,213,0,0,,0.0086,0.153,0.09,0.1,-0.122,0.02,0,0.051,1.71
1970/01/01/05:31:56.029000,214,0,0,,0.01,0.152,0.09,0.1,-0.122,0.02,0,0.038,1.702
1970/01/01/05:31:56.130000,215,0,0,,0.0109,0.152,0.09,0.1,-0.12,0.02,0,0.028,1.694
1970/01/01/05:31:56.229000,216,0,0,,0.0109,0.151,0.09,0.1,-0.116,0.02,0,0.022,1.686
1970/01/01/05:31:56.331000,217,0,0,,0.0117,0.15,0.09,0.1,-0.115,0.02,0,0.012,1.678
1970/01/01/05:31:56.431000,218,0,0,,0.013,0.149,0.09,0.1,-0.115,0.02,0,0,1.67
1970/01/01/05:31:56.530000,219,0,0,,0.0132,0.149,0.09,0.1,-0.112,0.02,0,0.006,1.662
1970/01/01/05:31:56.629000,220,0,0,,0.0132,0.148,0.09,0.1,-0.109,0.02,0,0.013,1.654
1970/01/01/05:31:56.730000,221,0,0,,0.0143,0.147,0.09,0.1,-0.109,0.02,0,0.024,1.645
1970/01/01/05:31:56.831000,222,0,0,,0.0148,0.147,0.09,0.1,-0.107,0.02,0,0.033,1.637
1970/01/01/05:31:56.931000,223,0,0,,0.0148,0.146,0.09,0.1,-0.104,0.02,0,0.039,1.629
1970/01/01/05:31:57.031000,224,0,0,,0.0155,0.145,0.09,0.1,-0.103,0.02,0,0.049,1.621
1970/01/01/05:31:57.132000,225,0,0,,0.0162,0.144,0.09,0.1,-0.102,0.02,0,0.058,1.613
1970/01/01/05:31:57.229000,226,0,0,,0.0161,0.144,0.09,0.1,-0.099,0.02,0,0.064,1.605
1970/01/01/05:31:57.330000,227,0,0,,0.0168,0.143,0.09,0.1,-0.099,0.02,0,0.073,1.596
1970/01/01/05:31:57.431000,228,0,0,,0.0172,0.142,0.09,0.1,-0.097,0.02,0,0.082,1.587
1970/01/01/05:31:57.531000,229,0,0,,0.0172,0.141,0.09,0.1,-0.095,0.02,0,0.086,1.578
1970/01/01/05:31:57.631000,230,0,0,,0.0173,0.141,0.09,0.1,-0.095,0.02,0,0.087,1.571
1970/01/01/05:31:57.729000,231,0,0,,0.0173,0.14,0.09,0.1,-0.095,0.02,0,0.087,1.563
1970/01/01/05:31:57.831000,232,0,0,,0.0176,0.139,0.09,0.1,-0.096,0.02,0,0.088,1.554
1970/01/01/05:31:57.930000,233,0,0,,0.0177,0.138,0.09,0.1,-0.096,0.02,0,0.088,1.545
1970/01/01/05:31:58.031000,234,0,0,,0.0177,0.138,0.09,0.1,-0.096,0.02,0,0.088,1.537
1970/01/01/05:31:58.130000,235,0,0,,0.018,0.137,0.09,0.1,-0.097,0.02,0,0.089,1.528
1970/01/01/05:31:58.230000,236,0,0,,0.018,0.136,0.09,0.1,-0.097,0.02,0,0.089,1.519
1970/01/01/05:31:58.330000,237,0,0,,0.018,0.135,0.09,0.1,-0.097,0.02,0,0.089,1.511
1970/01/01/05:31:58.429000,238,0,0,,0.0184,0.134,0.09,0.1,-0.098,0.02,0,0.09,1.5
1970/01/01/05:31:58.531000,239,0,0,,0.0184,0.133,0.09,0.1,-0.098,0.02,0,0.09,1.492
1970/01/01/05:31:58.631000,240,0,0,,0.0184,0.133,0.09,0.1,-0.098,0.02,0,0.09,1.483
1970/01/01/05:31:58.731000,241,0,0,,0.0185,0.132,0.09,0.1,-0.098,0.02,0,0.091,1.474
1970/01/01/05:31:58.830000,242,0,0,,0.0188,0.131,0.09,0.1,-0.099,0.02,0,0.091,1.465
1970/01/01/05:31:58.930000,243,0,0,,0.0188,0.13,0.09,0.1,-0.099,0.02,0,0.091,1.456
1970/01/01/05:31:59.031000,244,0,0,,0.0189,0.129,0.09,0.1,-0.099,0.02,0,0.092,1.447
1970/01/01/05:31:59.130000,245,0,0,,0.0189,0.129,0.09,0.1,-0.099,0.02,0,0.092,1.439
1970/01/01/05:31:59.231000,246,0,0,,0.0192,0.127,0.09,0.1,-0.1,0.02,0,0.092,1.428
1970/01/01/05:31:59.331000,247,0,0,,0.0193,0.127,0.09,0.1,-0.1,0.02,0,0.093,1.419
1970/01/01/05:31:59.431000,248,0,0,,0.0193,0.126,0.09,0.1,-0.1,0.02,0,0.093,1.41
1970/01/01/05:31:59.531000,249,0,0,,0.0197,0.125,0.09,0.1,-0.101,0.02,0,0.094,1.401
1970/01/01/05:31:59.629000,250,0,0,,0.0197,0.125,0.09,0.1,-0.101,0.02,0,0.094,1.393
1970/01/01/05:31:59.730000,251,0,0,,0.0197,0.124,0.09,0.1,-0.101,0.02,0,0.094,1.384
1970/01/01/05:31:59.831000,252,0,0,,0.0198,0.123,0.09,0.1,-0.101,0.02,0,0.095,1.375
1970/01/01/05:31:59.930000,253,0,0,,0.0201,0.122,0.09,0.1,-0.102,0.02,0,0.095,1.366
1970/01/01/05:32:00.031000,254,0,0,,0.0201,0.121,0.09,0.1,-0.102,0.02,0,0.095,1.357
1970/01/01/05:32:00.131000,255,0,0,,0.0202,0.121,0.09,0.1,-0.102,0.02,0,0.096,1.349
1970/01/01/05:32:00.231000,256,0,0,,0.0205,0.12,0.09,0.1,-0.103,0.02,0,0.096,1.339
1970/01/01/05:32:00.331000,257,0,0,,0.0206,0.119,0.09,0.1,-0.103,0.02,0,0.097,1.33
1970/01/01/05:32:00.430000,258,0,0,,0.0206,0.118,0.09,0.1,-0.103,0.02,0,0.097,1.321
1970/01/01/05:32:00.530000,259,0,0,,0.0209,0.117,0.09,0.1,-0.104,0.02,0,0.097,1.312
1970/01/01/05:32:00.631000,260,0,0,,0.021,0.117,0.09,0.1,-0.104,0.02,0,0.098,1.304
1970/01/01/05:32:00.750000,261,0,0,,0.021,0.115,0.09,0.1,-0.104,0.02,0,0.098,1.293
1970/01/01/05:32:00.830000,262,0,0,,0.0214,0.115,0.09,0.1,-0.105,0.02,0,0.099,1.284
1970/01/01/05:32:00.928000,263,0,0,,0.0214,0.114,0.09,0.1,-0.105,0.02,0,0.099,1.274
1970/01/01/05:32:01.031000,264,0,0,,0.0215,0.113,0.09,0.1,-0.105,0.02,0,0.1,1.265
1970/01/01/05:32:01.131000,265,0,0,,0.0215,0.112,0.09,0.1,-0.105,0.02,0,0.1,1.256
1970/01/01/05:32:01.230000,266,0,0,,0.0218,0.112,0.09,0.1,-0.106,0.02,0,0.1,1.248
1970/01/01/05:32:01.330000,267,0,0,,0.0219,0.111,0.09,0.1,-0.106,0.02,0,0.101,1.239
1970/01/01/05:32:01.430000,268,0,0,,0.0219,0.11,0.09,0.1,-0.106,0.02,0,0.101,1.229
1970/01/01/05:32:01.531000,269,0,0,,0.0223,0.109,0.09,0.1,-0.107,0.02,0,0.102,1.221
1970/01/01/05:32:01.628000,270,0,0,,0.0224,0.108,0.09,0.1,-0.107,0.02,0,0.102,1.212
1970/01/01/05:32:01.730000,271,0,0,,0.0224,0.107,0.09,0.1,-0.107,0.02,0,0.102,1.203
1970/01/01/05:32:01.831000,272,0,0,,0.0227,0.107,0.09,0.1,-0.108,0.02,0,0.103,1.194
1970/01/01/05:32:01.929000,273,0,0,,0.0228,0.106,0.09,0.1,-0.108,0.02,0,0.103,1.185
1970/01/01/05:32:02.030000,274,0,0,,0.0229,0.105,0.09,0.1,-0.108,0.02,0,0.104,1.177
1970/01/01/05:32:02.128000,275,0,0,,0.0229,0.104,0.09,0.1,-0.108,0.02,0,0.104,1.168
1970/01/01/05:32:02.231000,276,0,0,,0.0233,0.103,0.09,0.1,-0.109,0.02,0,0.105,1.159
1970/01/01/05:32:02.331000,277,0,0,,0.0233,0.103,0.09,0.1,-0.109,0.02,0,0.105,1.151
1970/01/01/05:32:02.428000,278,0,0,,0.0233,0.101,0.09,0.1,-0.109,0.02,0,0.105,1.14
1970/01/01/05:32:02.530000,279,0,0,,0.0234,0.101,0.09,0.1,-0.109,0.02,0,0.106,1.132
1970/01/01/05:32:02.631000,280,0,0,,0.0237,0.1,0.09,0.1,-0.11,0.02,0,0.106,1.123
1970/01/01/05:32:02.729000,281,0,0,,0.0238,0.099,0.09,0.1,-0.11,0.02,0,0.107,1.114
1970/01/01/05:32:02.829000,282,0,0,,0.0242,0.099,0.09,0.1,-0.111,0.02,0,0.107,1.105
1970/01/01/05:32:02.928000,283,0,0,,0.0243,0.098,0.09,0.1,-0.111,0.02,0,0.108,1.095
1970/01/01/05:32:03.031000,284,0,0,,0.0243,0.097,0.09,0.1,-0.111,0.02,0,0.108,1.087
1970/01/01/05:32:03.131000,285,0,0,,0.0244,0.096,0.09,0.1,-0.111,0.02,0,0.109,1.078
1970/01/01/05:32:03.228000,286,0,0,,0.0247,0.095,0.09,0.1,-0.112,0.02,0,0.109,1.069
1970/01/01/05:32:03.330000,287,0,0,,0.0248,0.095,0.09,0.1,-0.112,0.02,0,0.11,1.061
1970/01/01/05:32:03.430000,288,0,0,,0.0249,0.094,0.09,0.1,-0.112,0.02,0,0.11,1.051
1970/01/01/05:32:03.528000,289,0,0,,0.0253,0.093,0.09,0.1,-0.113,0.02,0,0.111,1.042
1970/01/01/05:32:03.630000,290,0,0,,0.0253,0.092,0.09,0.1,-0.113,0.02,0,0.111,1.034
1970/01/01/05:32:03.730000,291,0,0,,0.0254,0.091,0.09,0.1,-0.113,0.02,0,0.112,1.024
1970/01/01/05:32:03.831000,292,0,0,,0.0254,0.09,0.09,0.1,-0.113,0.02,0,0.112,1.015
1970/01/01/05:32:03.929000,293,0,0,,0.0258,0.09,0.09,0.1,-0.114,0.02,0,0.113,1.006
1970/01/01/05:32:04.029000,294,0,0,,0.0259,0.089,0.09,0.1,-0.114,0.02,0,0.113,0.997
1970/01/01/05:32:04.129000,295,0,0,,0.0263,0.088,0.09,0.1,-0.115,0.02,0,0.114,0.987
1970/01/01/05:32:04.231000,296,0,0,,0.0263,0.087,0.09,0.1,-0.115,0.02,0,0.114,0.977
1970/01/01/05:32:04.330000,297,0,0,,0.0264,0.086,0.09,0.1,-0.115,0.02,0,0.115,0.968
1970/01/01/05:32:04.429000,298,0,0,,0.0269,0.085,0.09,0.1,-0.116,0.02,0,0.116,0.959
1970/01/01/05:32:04.530000,299,0,0,,0.0269,0.085,0.09,0.1,-0.116,0.02,0,0.116,0.95
1970/01/01/05:32:04.631000,300,0,0,,0.027,0.084,0.09,0.1,-0.116,0.02,0,0.117,0.941
1970/01/01/05:32:04.729000,301,0,0,,0.0274,0.083,0.09,0.1,-0.117,0.02,0,0.117,0.932
1970/01/01/05:32:04.829000,302,0,0,,0.0275,0.082,0.09,0.1,-0.117,0.02,0,0.118,0.924
1970/01/01/05:32:04.931000,303,0,0,,0.0275,0.081,0.09,0.1,-0.117,0.02,0,0.118,0.915
1970/01/01/05:32:05.031000,304,0,0,,0.0279,0.081,0.09,0.1,-0.118,0.02,0,0.119,0.906
1970/01/01/05:32:05.128000,305,0,0,,0.0281,0.08,0.09,0.1,-0.118,0.02,0,0.12,0.896
1970/01/01/05:32:05.230000,306,0,0,,0.0281,0.079,0.09,0.1,-0.118,0.02,0,0.12,0.887
1970/01/01/05:32:05.330000,307,0,0,,0.0285,0.078,0.09,0.1,-0.119,0.02,0,0.121,0.878
1970/01/01/05:32:05.431000,308,0,0,,0.0286,0.077,0.09,0.1,-0.119,0.02,0,0.121,0.869
1970/01/01/05:32:05.530000,309,0,0,,0.0287,0.076,0.09,0.1,-0.119,0.02,0,0.122,0.86
1970/01/01/05:32:05.629000,310,0,0,,0.029,0.076,0.09,0.1,-0.12,0.02,0,0.122,0.851
1970/01/01/05:32:05.747000,311,0,0,,0.0291,0.075,0.09,0.1,-0.12,0.02,0,0.123,0.843
1970/01/01/05:32:05.829000,312,0,0,,0.0293,0.074,0.09,0.1,-0.12,0.02,0,0.124,0.833
1970/01/01/05:32:05.930000,313,0,0,,0.0296,0.073,0.09,0.1,-0.121,0.02,0,0.124,0.824
1970/01/01/05:32:06.030000,314,0,0,,0.0297,0.072,0.09,0.1,-0.121,0.02,0,0.125,0.815
1970/01/01/05:32:06.131000,315,0,0,,0.0299,0.071,0.09,0.1,-0.121,0.02,0,0.126,0.805
1970/01/01/05:32:06.231000,316,0,0,,0.0302,0.071,0.09,0.1,-0.122,0.02,0,0.126,0.796
1970/01/01/05:32:06.330000,317,0,0,,0.0304,0.07,0.09,0.1,-0.122,0.02,0,0.127,0.788
1970/01/01/05:32:06.428000,318,0,0,,0.0305,0.069,0.09,0.1,-0.122,0.02,0,0.128,0.779
1970/01/01/05:32:06.530000,319,0,0,,0.0309,0.068,0.09,0.1,-0.123,0.02,0,0.128,0.77
1970/01/01/05:32:06.630000,320,0,0,,0.031,0.068,0.09,0.1,-0.123,0.02,0,0.129,0.761
1970/01/01/05:32:06.729000,321,0,0,,0.0311,0.067,0.09,0.1,-0.123,0.02,0,0.13,0.752
1970/01/01/05:32:06.830000,322,0,0,,0.0315,0.066,0.09,0.1,-0.124,0.02,0,0.13,0.744
1970/01/01/05:32:06.931000,323,0,0,,0.0316,0.065,0.09,0.1,-0.124,0.02,0,0.131,0.735
1970/01/01/05:32:07.031000,324,0,0,,0.0316,0.064,0.09,0.1,-0.124,0.02,0,0.131,0.726
1970/01/01/05:32:07.129000,325,0,0,,0.0321,0.063,0.09,0.1,-0.125,0.02,0,0.132,0.716
1970/01/01/05:32:07.229000,326,0,0,,0.0322,0.063,0.09,0.1,-0.125,0.02,0,0.133,0.708
1970/01/01/05:32:07.331000,327,0,0,,0.0324,0.062,0.09,0.1,-0.125,0.02,0,0.134,0.698
1970/01/01/05:32:07.430000,328,0,0,,0.0327,0.061,0.09,0.1,-0.126,0.02,0,0.134,0.689
1970/01/01/05:32:07.529000,329,0,0,,0.0329,0.06,0.09,0.1,-0.126,0.02,0,0.135,0.681
1970/01/01/05:32:07.631000,330,0,0,,0.033,0.06,0.09,0.1,-0.126,0.02,0,0.136,0.672
1970/01/01/05:32:07.731000,331,0,0,,0.0334,0.059,0.09,0.1,-0.127,0.02,0,0.136,0.663
1970/01/01/05:32:07.829000,332,0,0,,0.0335,0.058,0.09,0.1,-0.127,0.02,0,0.137,0.653
1970/01/01/05:32:07.929000,333,0,0,,0.0336,0.057,0.09,0.1,-0.127,0.02,0,0.138,0.644
1970/01/01/05:32:08.030000,334,0,0,,0.0341,0.056,0.09,0.1,-0.128,0.02,0,0.139,0.635
1970/01/01/05:32:08.132000,335,0,0,,0.0342,0.055,0.09,0.1,-0.128,0.02,0,0.139,0.626
1970/01/01/05:32:08.230000,336,0,0,,0.0343,0.055,0.09,0.1,-0.128,0.02,0,0.14,0.618
1970/01/01/05:32:08.328000,337,0,0,,0.0348,0.054,0.09,0.1,-0.129,0.02,0,0.141,0.609
1970/01/01/05:32:08.431000,338,0,0,,0.0349,0.053,0.09,0.1,-0.129,0.02,0,0.142,0.6
1970/01/01/05:32:08.530000,339,0,0,,0.035,0.052,0.09,0.1,-0.129,0.02,0,0.142,0.591
1970/01/01/05:32:08.630000,340,0,0,,0.0355,0.051,0.09,0.1,-0.13,0.02,0,0.143,0.582
1970/01/01/05:32:08.731000,341,0,0,,0.0356,0.051,0.09,0.1,-0.13,0.02,0,0.144,0.574
1970/01/01/05:32:08.831000,342,0,0,,0.036,0.05,0.09,0.1,-0.131,0.02,0,0.144,0.565
1970/01/01/05:32:08.930000,343,0,0,,0.0361,0.049,0.09,0.1,-0.131,0.02,0,0.145,0.556
1970/01/01/05:32:09.030000,344,0,0,,0.0363,0.048,0.09,0.1,-0.131,0.02,0,0.146,0.547
1970/01/01/05:32:09.130000,345,0,0,,0.0368,0.048,0.09,0.1,-0.132,0.02,0,0.147,0.538
1970/01/01/05:32:09.231000,346,0,0,,0.0369,0.047,0.09,0.1,-0.132,0.02,0,0.148,0.529
1970/01/01/05:32:09.331000,347,0,0,,0.0375,0.046,0.09,0.1,-0.133,0.02,0,0.149,0.519
1970/01/01/05:32:09.430000,348,0,0,,0.0375,0.045,0.09,0.1,-0.133,0.02,0,0.149,0.511
1970/01/01/05:32:09.530000,349,0,0,,0.0376,0.044,0.09,0.1,-0.133,0.02,0,0.15,0.502
1970/01/01/05:32:09.630000,350,0,0,,0.0382,0.043,0.09,0.1,-0.134,0.02,0,0.151,0.493
1970/01/01/05:32:09.729000,351,0,0,,0.0383,0.042,0.09,0.1,-0.134,0.02,0,0.152,0.483
1970/01/01/05:32:09.829000,352,0,0,,0.0383,0.043,0.09,0.1,-0.134,0.02,0,0.152,0.48
1970/01/01/05:32:09.930000,353,0,0,,0.0383,0.043,0.09,0.1,-0.134,0.02,0,0.152,0.48
1970/01/01/05:32:10.030000,354,0,0,,0.0383,0.043,0.09,0.1,-0.134,0.02,0,0.152,0.48
1970/01/01/05:32:10.129000,355,0,0,,0.0383,0.043,0.09,0.1,-0.134,0.02,0,0.152,0.48
1970/01/01/05:32:10.231000,356,0,0,,0.0383,0.043,0.09,0.1,-0.134,0.02,0,0.152,0.48
1970/01/01/05:32:10.330000,357,0,0,,0.0383,0.043,0.09,0.1,-0.134,0.02,0,0.152,0.48
1970/01/01/05:32:10.431000,358,0,0,,0.0382,0.043,0.09,0.1,-0.134,0.02,0,0.151,0.481
1970/01/01/05:32:10.529000,359,0,0,,0.0382,0.043,0.09,0.1,-0.134,0.02,0,0.151,0.481
1970/01/01/05:32:10.630000,360,0,0,,0.0382,0.043,0.09,0.1,-0.134,0.02,0,0.151,0.481
1970/01/01/05:32:10.740000,361,0,0,,0.0382,0.043,0.09,0.1,-0.134,0.02,0,0.151,0.481
1970/01/01/05:32:10.831000,362,0,0,,0.0382,0.043,0.09,0.1,-0.134,0.02,0,0.151,0.481
1970/01/01/05:32:10.930000,363,0,0,,0.0382,0.043,0.09,0.1,-0.134,0.02,0,0.151,0.481
1970/01/01/05:32:11.028000,364,0,0,,0.0382,0.043,0.09,0.1,-0.134,0.02,0,0.151,0.481
1970/01/01/05:32:11.130000,365,0,0,,0.0382,0.043,0.09,0.1,-0.134,0.02,0,0.151,0.481
1970/01/01/05:32:11.231000,366,0,0,,0.0382,0.043,0.09,0.1,-0.134,0.02,0,0.151,0.481
1970/01/01/05:32:11.330000,367,0,0,,0.0382,0.043,0.09,0.1,-0.134,0.02,0,0.151,0.482
1970/01/01/05:32:11.428000,368,0,0,,0.0382,0.043,0.09,0.1,-0.134,0.02,0,0.151,0.482
1970/01/01/05:32:11.530000,369,0,0,,0.0382,0.043,0.09,0.1,-0.134,0.02,0,0.151,0.482
1970/01/01/05:32:11.631000,370,0,0,,0.0382,0.043,0.09,0.1,-0.134,0.02,0,0.151,0.482
1970/01/01/05:32:11.731000,371,0,0,,0.0382,0.043,0.09,0.1,-0.134,0.02,0,0.151,0.482
1970/01/01/05:32:11.831000,372,0,0,,0.0382,0.043,0.09,0.1,-0.134,0.02,0,0.151,0.482
1970/01/01/05:32:11.930000,373,0,0,,0.0382,0.043,0.09,0.1,-0.134,0.02,0,0.151,0.482
1970/01/01/05:32:12.030000,374,0,0,,0.0382,0.043,0.09,0.1,-0.134,0.02,0,0.151,0.482
1970/01/01/05:32:12.130000,375,0,0,,0.0382,0.043,0.09,0.1,-0.134,0.02,0,0.151,0.482
1970/01/01/05:32:12.231000,376,0,0,,0.0382,0.044,0.09,0.1,-0.134,0.02,0,0.151,0.483
1970/01/01/05:32:12.331000,377,0,0,,0.0382,0.043,0.09,0.1,-0.134,0.02,0,0.151,0.483
1970/01/01/05:32:12.431000,378,0,0,,0.0382,0.043,0.09,0.1,-0.134,0.02,0,0.151,0.483
1970/01/01/05:32:12.531000,379,0,0,,0.0382,0.043,0.09,0.1,-0.134,0.02,0,0.151,0.483
1970/01/01/05:32:12.631000,380,0,0,,0.0382,0.043,0.09,0.1,-0.134,0.02,0,0.151,0.483
1970/01/01/05:32:12.731000,381,0,0,,0.0382,0.043,0.09,0.1,-0.134,0.02,0,0.151,0.483
1970/01/01/05:32:12.831000,382,0,0,,0.0382,0.043,0.09,0.1,-0.134,0.02,0,0.151,0.483
1970/01/01/05:32:12.930000,383,0,0,,0.0382,0.043,0.09,0.1,-0.134,0.02,0,0.151,0.483
1970/01/01/05:32:13.030000,384,0,0,,0.0381,0.043,0.09,0.1,-0.134,0.02,0,0.15,0.483
1970/01/01/05:32:13.131000,385,0,0,,0.0381,0.044,0.09,0.1,-0.134,0.02,0,0.15,0.484
1970/01/01/05:32:13.230000,386,0,0,,0.0381,0.044,0.09,0.1,-0.134,0.02,0,0.15,0.484
1970/01/01/05:32:13.329000,387,0,0,,0.0381,0.044,0.09,0.1,-0.134,0.02,0,0.15,0.484
1970/01/01/05:32:13.429000,388,0,0,,0.0381,0.044,0.09,0.1,-0.134,0.02,0,0.15,0.484
1970/01/01/05:32:13.531000,389,0,0,,0.0381,0.044,0.09,0.1,-0.134,0.02,0,0.15,0.484
1970/01/01/05:32:13.630000,390,0,0,,0.0381,0.044,0.09,0.1,-0.134,0.02,0,0.15,0.484
1970/01/01/05:32:13.729000,391,0,0,,0.0381,0.044,0.09,0.1,-0.134,0.02,0,0.15,0.484
1970/01/01/05:32:13.830000,392,0,0,,0.0381,0.044,0.09,0.1,-0.134,0.02,0,0.15,0.484
1970/01/01/05:32:13.930000,393,0,0,,0.0381,0.044,0.09,0.1,-0.134,0.02,0,0.15,0.484
