time,.header.seq,.header.stamp.secs,.header.stamp.nsecs,.header.frame_id,.angular_vel,.linear_vel,.kp_dist,.kd_dist,.kp_angle,.kd_angle,.y_offset,.fork_angle,.dist_2_pallet
1970/01/01/05:32:56.424000,1,0,0,,0.3287,0.343,0.1,-0.828,-0.828,0.02,0.828,0.431,3.43
1970/01/01/05:32:56.523000,2,0,0,,0.3287,0.343,0.1,-0.828,-0.828,0.02,0.828,0.431,3.43
1970/01/01/05:32:56.624000,3,0,0,,0.3287,0.343,0.1,-0.828,-0.828,0.02,0.828,0.431,3.43
1970/01/01/05:32:56.724000,4,0,0,,0.3287,0.343,0.1,-0.828,-0.828,0.02,0.828,0.431,3.43
1970/01/01/05:32:56.823000,5,0,0,,0.3279,0.343,0.1,-0.828,-0.828,0.02,0.828,0.432,3.43
1970/01/01/05:32:56.922000,6,0,0,,0.3279,0.343,0.1,-0.828,-0.828,0.02,0.828,0.432,3.43
1970/01/01/05:32:57.024000,7,0,0,,0.3279,0.343,0.1,-0.828,-0.828,0.02,0.828,0.432,3.43
1970/01/01/05:32:57.124000,8,0,0,,0.3279,0.343,0.1,-0.828,-0.828,0.02,0.828,0.432,3.43
1970/01/01/05:32:57.224000,9,0,0,,0.3279,0.343,0.1,-0.828,-0.828,0.02,0.828,0.432,3.43
1970/01/01/05:32:57.324000,10,0,0,,0.3279,0.343,0.1,-0.828,-0.828,0.02,0.828,0.432,3.43
1970/01/01/05:32:57.425000,11,0,0,,0.3271,0.343,0.1,-0.828,-0.828,0.02,0.828,0.433,3.43
1970/01/01/05:32:57.524000,12,0,0,,0.3271,0.343,0.1,-0.828,-0.828,0.02,0.828,0.433,3.43
1970/01/01/05:32:57.623000,13,0,0,,0.3271,0.343,0.1,-0.828,-0.828,0.02,0.828,0.433,3.43
1970/01/01/05:32:57.723000,14,0,0,,0.3271,0.343,0.1,-0.828,-0.828,0.02,0.828,0.433,3.43
1970/01/01/05:32:57.825000,15,0,0,,0.3271,0.342,0.1,-0.828,-0.828,0.02,0.828,0.433,3.431
1970/01/01/05:32:57.924000,16,0,0,,0.3271,0.343,0.1,-0.828,-0.828,0.02,0.828,0.433,3.431
1970/01/01/05:32:58.024000,17,0,0,,0.3263,0.343,0.1,-0.828,-0.828,0.02,0.828,0.434,3.431
1970/01/01/05:32:58.121000,18,0,0,,0.3262,0.343,0.1,-0.828,-0.828,0.02,0.828,0.434,3.431
1970/01/01/05:32:58.223000,19,0,0,,0.3262,0.343,0.1,-0.828,-0.828,0.02,0.828,0.434,3.431
1970/01/01/05:32:58.324000,20,0,0,,0.3262,0.343,0.1,-0.828,-0.828,0.02,0.828,0.434,3.431
1970/01/01/05:32:58.423000,21,0,0,,0.3262,0.343,0.1,-0.828,-0.828,0.02,0.828,0.434,3.431
1970/01/01/05:32:58.522000,22,0,0,,0.3262,0.343,0.1,-0.828,-0.828,0.02,0.828,0.434,3.431
1970/01/01/05:32:58.624000,23,0,0,,0.3254,0.343,0.1,-0.828,-0.828,0.02,0.828,0.435,3.431
1970/01/01/05:32:58.723000,24,0,0,,0.3254,0.343,0.1,-0.828,-0.828,0.02,0.828,0.435,3.431
1970/01/01/05:33:02.559000,1,0,0,,0.3204,0.343,0.1,-0.828,-0.828,0.02,0.828,0.441,3.434
1970/01/01/05:33:02.659000,2,0,0,,0.3204,0.343,0.1,-0.828,-0.828,0.02,0.828,0.441,3.434
1970/01/01/05:33:02.760000,3,0,0,,0.3196,0.343,0.1,-0.828,-0.828,0.02,0.828,0.442,3.434
1970/01/01/05:33:02.860000,4,0,0,,0.3196,0.343,0.1,-0.828,-0.828,0.02,0.828,0.442,3.434
1970/01/01/05:33:02.958000,5,0,0,,0.3196,0.343,0.1,-0.828,-0.828,0.02,0.828,0.442,3.434
1970/01/01/05:33:03.058000,6,0,0,,0.3196,0.343,0.1,-0.828,-0.828,0.02,0.828,0.442,3.434
1970/01/01/05:33:03.160000,7,0,0,,0.3196,0.343,0.1,-0.828,-0.828,0.02,0.828,0.442,3.434
1970/01/01/05:33:03.260000,8,0,0,,0.3196,0.343,0.1,-0.828,-0.828,0.02,0.828,0.442,3.434
1970/01/01/05:33:03.359000,9,0,0,,0.3196,0.343,0.1,-0.828,-0.828,0.02,0.828,0.442,3.434
1970/01/01/05:33:03.459000,10,0,0,,0.3196,0.343,0.1,-0.828,-0.828,0.02,0.828,0.442,3.434
1970/01/01/05:33:03.556000,11,0,0,,0.3196,0.343,0.1,-0.828,-0.828,0.02,0.828,0.442,3.434
1970/01/01/05:33:03.659000,12,0,0,,0.3196,0.343,0.1,-0.828,-0.828,0.02,0.828,0.442,3.434
1970/01/01/05:33:03.759000,13,0,0,,0.3196,0.343,0.1,-0.828,-0.828,0.02,0.828,0.442,3.434
1970/01/01/05:33:03.859000,14,0,0,,0.3196,0.344,0.1,-0.828,-0.828,0.02,0.828,0.442,3.433
1970/01/01/05:33:03.958000,15,0,0,,0.3196,0.343,0.1,-0.828,-0.828,0.02,0.828,0.442,3.433
1970/01/01/05:33:04.058000,16,0,0,,0.3196,0.343,0.1,-0.828,-0.828,0.02,0.828,0.442,3.433
1970/01/01/05:33:04.159000,17,0,0,,0.3196,0.343,0.1,-0.828,-0.828,0.02,0.828,0.442,3.433
1970/01/01/05:33:18.986000,1,0,0,,0.3086,0.346,0.1,-0.827,-0.827,0.02,0.827,0.454,3.423
1970/01/01/05:33:19.087000,2,0,0,,0.3012,0.351,0.1,-0.827,-0.827,0.02,0.827,0.463,3.411
1970/01/01/05:33:19.187000,3,0,0,,0.2897,0.355,0.1,-0.827,-0.827,0.02,0.827,0.477,3.392
1970/01/01/05:33:19.287000,4,0,0,,0.2773,0.356,0.1,-0.827,-0.827,0.02,0.827,0.492,3.369
1970/01/01/05:33:19.386000,5,0,0,,0.2649,0.354,0.1,-0.827,-0.827,0.02,0.827,0.507,3.345
1970/01/01/05:33:19.485000,6,0,0,,0.2517,0.351,0.1,-0.827,-0.827,0.02,0.827,0.523,3.322
1970/01/01/05:33:19.586000,7,0,0,,0.2401,0.35,0.1,-0.827,-0.827,0.02,0.827,0.537,3.298
1970/01/01/05:33:19.685000,8,0,0,,0.2285,0.348,0.1,-0.827,-0.827,0.02,0.827,0.551,3.273
1970/01/01/05:33:19.786000,9,0,0,,0.2135,0.347,0.1,-0.826,-0.826,0.02,0.826,0.568,3.246
1970/01/01/05:33:19.887000,10,0,0,,0.2018,0.343,0.1,-0.826,-0.826,0.02,0.826,0.582,3.22
1970/01/01/05:33:19.987000,11,0,0,,0.1892,0.34,0.1,-0.825,-0.825,0.02,0.825,0.596,3.195
1970/01/01/05:33:20.087000,12,0,0,,0.1766,0.338,0.1,-0.824,-0.824,0.02,0.824,0.61,3.169
1970/01/01/05:33:20.185000,13,0,0,,0.1649,0.335,0.1,-0.823,-0.823,0.02,0.823,0.623,3.144
1970/01/01/05:33:20.287000,14,0,0,,0.1532,0.333,0.1,-0.822,-0.822,0.02,0.822,0.636,3.118
1970/01/01/05:33:20.386000,15,0,0,,0.1415,0.331,0.1,-0.821,-0.821,0.02,0.821,0.649,3.092
1970/01/01/05:33:20.487000,16,0,0,,0.1306,0.327,0.1,-0.82,-0.82,0.02,0.82,0.661,3.067
1970/01/01/05:33:20.586000,17,0,0,,0.1198,0.325,0.1,-0.819,-0.819,0.02,0.819,0.673,3.041
1970/01/01/05:33:20.687000,18,0,0,,0.1083,0.323,0.1,-0.818,-0.818,0.02,0.818,0.686,3.015
1970/01/01/05:33:20.787000,19,0,0,,0.0958,0.321,0.1,-0.816,-0.816,0.02,0.816,0.699,2.988
1970/01/01/05:33:20.887000,20,0,0,,0.0825,0.32,0.1,-0.814,-0.814,0.02,0.814,0.713,2.959
1970/01/01/05:33:20.987000,21,0,0,,0.0685,0.315,0.1,-0.811,-0.811,0.02,0.811,0.727,2.932
1970/01/01/05:33:21.087000,22,0,0,,0.0561,0.313,0.1,-0.809,-0.809,0.02,0.809,0.74,2.904
1970/01/01/05:33:21.187000,23,0,0,,0.0439,0.31,0.1,-0.807,-0.807,0.02,0.807,0.753,2.876
1970/01/01/05:33:21.286000,24,0,0,,0.0285,0.309,0.1,-0.803,-0.803,0.02,0.803,0.768,2.845
1970/01/01/05:33:21.386000,25,0,0,,0.0163,0.304,0.1,-0.8,-0.8,0.02,0.8,0.78,2.817
1970/01/01/05:33:21.486000,26,0,0,,0.0035,0.302,0.1,-0.797,-0.797,0.02,0.797,0.793,2.788
1970/01/01/05:33:21.587000,27,0,0,,0.0092,0.299,0.1,-0.794,-0.794,0.02,0.794,0.806,2.759
1970/01/01/05:33:21.686000,28,0,0,,0.0226,0.297,0.1,-0.79,-0.79,0.02,0.79,0.819,2.729
1970/01/01/05:33:21.786000,29,0,0,,0.0366,0.295,0.1,-0.786,-0.786,0.02,0.786,0.833,2.697
1970/01/01/05:33:21.887000,30,0,0,,0.0497,0.29,0.1,-0.782,-0.782,0.02,0.782,0.846,2.667
1970/01/01/05:33:21.987000,31,0,0,,0.0649,0.289,0.1,-0.777,-0.777,0.02,0.777,0.861,2.634
1970/01/01/05:33:22.085000,32,0,0,,0.0799,0.286,0.1,-0.772,-0.772,0.02,0.772,0.876,2.6
1970/01/01/05:33:22.186000,33,0,0,,0.0926,0.281,0.1,-0.768,-0.768,0.02,0.768,0.889,2.568
1970/01/01/05:33:22.287000,34,0,0,,0.1072,0.279,0.1,-0.763,-0.763,0.02,0.763,0.904,2.534
1970/01/01/05:33:22.388000,35,0,0,,0.123,0.276,0.1,-0.757,-0.757,0.02,0.757,0.92,2.499
1970/01/01/05:33:22.486000,36,0,0,,0.1392,0.275,0.1,-0.751,-0.751,0.02,0.751,0.937,2.46
1970/01/01/05:33:22.585000,37,0,0,,0.1545,0.271,0.1,-0.745,-0.745,0.02,0.745,0.953,2.422
1970/01/01/05:33:22.687000,38,0,0,,0.1719,0.27,0.1,-0.737,-0.737,0.02,0.737,0.971,2.379
1970/01/01/05:33:22.787000,39,0,0,,0.1893,0.266,0.1,-0.73,-0.73,0.02,0.73,0.99,2.335
1970/01/01/05:33:22.886000,40,0,0,,0.2027,0.257,0.1,-0.723,-0.723,0.02,0.723,1.004,2.298
1970/01/01/05:33:22.986000,41,0,0,,0.2193,0.257,0.1,-0.716,-0.716,0.02,0.716,1.023,2.254
1970/01/01/05:33:23.087000,42,0,0,,0.2359,0.255,0.1,-0.708,-0.708,0.02,0.708,1.042,2.206
1970/01/01/05:33:23.186000,43,0,0,,0.2535,0.251,0.1,-0.7,-0.7,0.02,0.7,1.063,2.156
1970/01/01/05:33:23.286000,44,0,0,,0.2693,0.245,0.1,-0.692,-0.692,0.02,0.692,1.082,2.107
1970/01/01/05:33:23.386000,45,0,0,,0.2824,0.235,0.1,-0.685,-0.685,0.02,0.685,1.098,2.065
1970/01/01/05:33:23.487000,46,0,0,,0.2967,0.233,0.1,-0.677,-0.677,0.02,0.677,1.116,2.019
1970/01/01/05:33:23.586000,47,0,0,,0.3112,0.23,0.1,-0.669,-0.669,0.02,0.669,1.135,1.969
1970/01/01/05:33:23.686000,48,0,0,,0.3247,0.224,0.1,-0.661,-0.661,0.02,0.661,1.153,1.92
1970/01/01/05:33:23.787000,49,0,0,,0.3384,0.219,0.1,-0.653,-0.653,0.02,0.653,1.172,1.871
1970/01/01/05:33:23.887000,50,0,0,,0.3509,0.213,0.1,-0.646,-0.646,0.02,0.646,1.19,1.823
1970/01/01/05:33:23.987000,51,0,0,,0.3625,0.208,0.1,-0.638,-0.638,0.02,0.638,1.207,1.775
1970/01/01/05:33:24.087000,52,0,0,,0.3695,0.195,0.1,-0.629,-0.629,0.02,0.629,1.217,1.742
1970/01/01/05:33:24.187000,53,0,0,,0.3706,0.182,0.1,-0.617,-0.617,0.02,0.617,1.218,1.727
1970/01/01/05:33:24.286000,54,0,0,,0.3635,0.167,0.1,-0.6,-0.6,0.02,0.6,1.206,1.739
1970/01/01/05:33:24.386000,55,0,0,,0.3564,0.165,0.1,-0.59,-0.59,0.02,0.59,1.194,1.757
1970/01/01/05:33:24.487000,56,0,0,,0.3505,0.167,0.1,-0.584,-0.584,0.02,0.584,1.184,1.774
1970/01/01/05:33:24.587000,57,0,0,,0.3446,0.169,0.1,-0.578,-0.578,0.02,0.578,1.174,1.792
1970/01/01/05:33:24.686000,58,0,0,,0.3409,0.175,0.1,-0.571,-0.571,0.02,0.571,1.168,1.8
1970/01/01/05:33:24.787000,59,0,0,,0.3367,0.176,0.1,-0.563,-0.563,0.02,0.563,1.161,1.808
1970/01/01/05:33:24.886000,60,0,0,,0.3309,0.173,0.1,-0.557,-0.557,0.02,0.557,1.151,1.825
1970/01/01/05:33:24.987000,61,0,0,,0.3256,0.176,0.1,-0.55,-0.55,0.02,0.55,1.142,1.84
1970/01/01/05:33:25.086000,62,0,0,,0.3214,0.18,0.1,-0.542,-0.542,0.02,0.542,1.135,1.848
1970/01/01/05:33:25.185000,63,0,0,,0.3163,0.179,0.1,-0.536,-0.536,0.02,0.536,1.126,1.862
1970/01/01/05:33:25.286000,64,0,0,,0.3111,0.18,0.1,-0.529,-0.529,0.02,0.529,1.117,1.876
1970/01/01/05:33:25.387000,65,0,0,,0.3068,0.184,0.1,-0.521,-0.521,0.02,0.521,1.11,1.884
1970/01/01/05:33:25.487000,66,0,0,,0.3013,0.182,0.1,-0.514,-0.514,0.02,0.514,1.1,1.899
1970/01/01/05:33:25.587000,67,0,0,,0.297,0.186,0.1,-0.506,-0.506,0.02,0.506,1.093,1.909
1970/01/01/05:33:25.687000,68,0,0,,0.2915,0.185,0.1,-0.499,-0.499,0.02,0.499,1.083,1.923
1970/01/01/05:33:25.787000,69,0,0,,0.2866,0.189,0.1,-0.49,-0.49,0.02,0.49,1.075,1.932
1970/01/01/05:33:25.887000,70,0,0,,0.2821,0.189,0.1,-0.483,-0.483,0.02,0.483,1.067,1.944
1970/01/01/05:33:25.985000,71,0,0,,0.2769,0.19,0.1,-0.475,-0.475,0.02,0.475,1.058,1.955
1970/01/01/05:33:26.086000,72,0,0,,0.2723,0.192,0.1,-0.467,-0.467,0.02,0.467,1.05,1.965
1970/01/01/05:33:26.187000,73,0,0,,0.2672,0.193,0.1,-0.459,-0.459,0.02,0.459,1.041,1.976
1970/01/01/05:33:26.288000,74,0,0,,0.2625,0.193,0.1,-0.451,-0.451,0.02,0.451,1.033,1.988
1970/01/01/05:33:26.387000,75,0,0,,0.2574,0.195,0.1,-0.443,-0.443,0.02,0.443,1.024,1.998
1970/01/01/05:33:26.487000,76,0,0,,0.2523,0.196,0.1,-0.435,-0.435,0.02,0.435,1.015,2.009
1970/01/01/05:33:26.587000,77,0,0,,0.2477,0.198,0.1,-0.427,-0.427,0.02,0.427,1.007,2.018
1970/01/01/05:33:26.687000,78,0,0,,0.243,0.198,0.1,-0.419,-0.419,0.02,0.419,0.999,2.029
1970/01/01/05:33:26.784000,79,0,0,,0.2382,0.2,0.1,-0.41,-0.41,0.02,0.41,0.991,2.037
1970/01/01/05:33:26.885000,80,0,0,,0.2328,0.2,0.1,-0.402,-0.402,0.02,0.402,0.981,2.049
1970/01/01/05:33:26.988000,81,0,0,,0.2281,0.202,0.1,-0.394,-0.394,0.02,0.394,0.973,2.058
1970/01/01/05:33:27.086000,82,0,0,,0.2233,0.203,0.1,-0.385,-0.385,0.02,0.385,0.965,2.067
1970/01/01/05:33:27.186000,83,0,0,,0.2183,0.204,0.1,-0.377,-0.377,0.02,0.377,0.956,2.077
1970/01/01/05:33:27.286000,84,0,0,,0.2131,0.205,0.1,-0.368,-0.368,0.02,0.368,0.947,2.087
1970/01/01/05:33:27.387000,85,0,0,,0.2081,0.206,0.1,-0.36,-0.36,0.02,0.36,0.938,2.096
1970/01/01/05:33:27.487000,86,0,0,,0.2032,0.207,0.1,-0.351,-0.351,0.02,0.351,0.93,2.106
1970/01/01/05:33:27.587000,87,0,0,,0.198,0.208,0.1,-0.342,-0.342,0.02,0.342,0.921,2.115
1970/01/01/05:33:27.685000,88,0,0,,0.1928,0.21,0.1,-0.333,-0.333,0.02,0.333,0.912,2.123
1970/01/01/05:33:27.787000,89,0,0,,0.1879,0.21,0.1,-0.324,-0.324,0.02,0.324,0.904,2.132
1970/01/01/05:33:27.885000,90,0,0,,0.183,0.211,0.1,-0.315,-0.315,0.02,0.315,0.896,2.14
1970/01/01/05:33:27.985000,91,0,0,,0.1778,0.212,0.1,-0.306,-0.306,0.02,0.306,0.887,2.148
1970/01/01/05:33:28.087000,92,0,0,,0.1728,0.213,0.1,-0.297,-0.297,0.02,0.297,0.879,2.155
1970/01/01/05:33:28.187000,93,0,0,,0.1676,0.214,0.1,-0.288,-0.288,0.02,0.288,0.87,2.164
1970/01/01/05:33:28.287000,94,0,0,,0.1626,0.215,0.1,-0.279,-0.279,0.02,0.279,0.862,2.17
1970/01/01/05:33:28.385000,95,0,0,,0.1573,0.216,0.1,-0.269,-0.269,0.02,0.269,0.854,2.178
1970/01/01/05:33:28.486000,96,0,0,,0.1523,0.217,0.1,-0.26,-0.26,0.02,0.26,0.846,2.185
1970/01/01/05:33:28.587000,97,0,0,,0.1471,0.217,0.1,-0.251,-0.251,0.02,0.251,0.837,2.192
1970/01/01/05:33:28.686000,98,0,0,,0.1418,0.218,0.1,-0.242,-0.242,0.02,0.242,0.828,2.2
1970/01/01/05:33:28.786000,99,0,0,,0.1364,0.219,0.1,-0.232,-0.232,0.02,0.232,0.82,2.206
1970/01/01/05:33:28.887000,100,0,0,,0.1313,0.22,0.1,-0.223,-0.223,0.02,0.223,0.812,2.214
1970/01/01/05:33:28.986000,101,0,0,,0.1264,0.221,0.1,-0.215,-0.215,0.02,0.215,0.803,2.221
1970/01/01/05:33:29.086000,102,0,0,,0.1209,0.221,0.1,-0.205,-0.205,0.02,0.205,0.795,2.227
1970/01/01/05:33:29.188000,103,0,0,,0.1156,0.222,0.1,-0.196,-0.196,0.02,0.196,0.786,2.234
1970/01/01/05:33:29.286000,104,0,0,,0.1105,0.223,0.1,-0.187,-0.187,0.02,0.187,0.778,2.241
1970/01/01/05:33:29.389000,105,0,0,,0.1052,0.224,0.1,-0.178,-0.178,0.02,0.178,0.769,2.248
1970/01/01/05:33:29.485000,106,0,0,,0.0997,0.224,0.1,-0.169,-0.169,0.02,0.169,0.759,2.257
1970/01/01/05:33:29.586000,107,0,0,,0.0944,0.225,0.1,-0.16,-0.16,0.02,0.16,0.75,2.264
1970/01/01/05:33:29.688000,108,0,0,,0.0891,0.226,0.1,-0.151,-0.151,0.02,0.151,0.741,2.271
1970/01/01/05:33:29.787000,109,0,0,,0.0841,0.227,0.1,-0.143,-0.143,0.02,0.143,0.731,2.279
1970/01/01/05:33:29.887000,110,0,0,,0.0783,0.228,0.1,-0.133,-0.133,0.02,0.133,0.722,2.286
1970/01/01/05:33:29.987000,111,0,0,,0.0729,0.228,0.1,-0.124,-0.124,0.02,0.124,0.712,2.292
1970/01/01/05:33:30.088000,112,0,0,,0.0676,0.229,0.1,-0.115,-0.115,0.02,0.115,0.703,2.299
1970/01/01/05:33:30.188000,113,0,0,,0.0618,0.23,0.1,-0.105,-0.105,0.02,0.105,0.694,2.305
1970/01/01/05:33:30.287000,114,0,0,,0.0569,0.231,0.1,-0.097,-0.097,0.02,0.097,0.683,2.313
1970/01/01/05:33:30.413000,115,0,0,,0.0519,0.231,0.1,-0.089,-0.089,0.02,0.089,0.672,2.323
1970/01/01/05:33:30.488000,116,0,0,,0.0465,0.232,0.1,-0.08,-0.08,0.02,0.08,0.661,2.329
1970/01/01/05:33:30.587000,117,0,0,,0.0442,0.233,0.1,-0.077,-0.077,0.02,0.077,0.648,2.343
1970/01/01/05:33:30.686000,118,0,0,,0.0412,0.234,0.1,-0.072,-0.072,0.02,0.072,0.645,2.342
1970/01/01/05:33:30.786000,119,0,0,,0.0393,0.234,0.1,-0.069,-0.069,0.02,0.069,0.637,2.339
1970/01/01/05:33:30.887000,120,0,0,,0.0388,0.234,0.1,-0.069,-0.069,0.02,0.069,0.629,2.342
1970/01/01/05:33:30.987000,121,0,0,,0.037,0.234,0.1,-0.066,-0.066,0.02,0.066,0.626,2.337
1970/01/01/05:33:31.087000,122,0,0,,0.0344,0.233,0.1,-0.061,-0.061,0.02,0.061,0.628,2.326
1970/01/01/05:33:31.187000,123,0,0,,0.033,0.232,0.1,-0.058,-0.058,0.02,0.058,0.628,2.319
1970/01/01/05:33:31.288000,124,0,0,,0.0328,0.232,0.1,-0.058,-0.058,0.02,0.058,0.62,2.32
1970/01/01/05:33:31.387000,125,0,0,,0.0318,0.232,0.1,-0.057,-0.057,0.02,0.057,0.613,2.321
1970/01/01/05:33:31.488000,126,0,0,,0.0291,0.232,0.1,-0.052,-0.052,0.02,0.052,0.614,2.31
1970/01/01/05:33:31.587000,127,0,0,,0.0271,0.231,0.1,-0.048,-0.048,0.02,0.048,0.615,2.301
1970/01/01/05:33:31.687000,128,0,0,,0.027,0.23,0.1,-0.048,-0.048,0.02,0.048,0.608,2.302
1970/01/01/05:33:31.787000,129,0,0,,0.0267,0.23,0.1,-0.048,-0.048,0.02,0.048,0.6,2.304
1970/01/01/05:33:31.886000,130,0,0,,0.0243,0.23,0.1,-0.044,-0.044,0.02,0.044,0.598,2.297
1970/01/01/05:33:31.987000,131,0,0,,0.0217,0.229,0.1,-0.039,-0.039,0.02,0.039,0.599,2.287
1970/01/01/05:33:32.084000,132,0,0,,0.0213,0.228,0.1,-0.038,-0.038,0.02,0.038,0.597,2.283
1970/01/01/05:33:32.187000,133,0,0,,0.0206,0.228,0.1,-0.037,-0.037,0.02,0.037,0.589,2.285
1970/01/01/05:33:32.287000,134,0,0,,0.0198,0.228,0.1,-0.036,-0.036,0.02,0.036,0.582,2.284
1970/01/01/05:33:32.387000,135,0,0,,0.0175,0.228,0.1,-0.032,-0.032,0.02,0.032,0.582,2.273
1970/01/01/05:33:32.487000,136,0,0,,0.0154,0.227,0.1,-0.028,-0.028,0.02,0.028,0.583,2.265
1970/01/01/05:33:32.587000,137,0,0,,0.0149,0.227,0.1,-0.027,-0.027,0.02,0.027,0.575,2.266
1970/01/01/05:33:32.687000,138,0,0,,0.0147,0.227,0.1,-0.027,-0.027,0.02,0.027,0.567,2.267
1970/01/01/05:33:32.788000,139,0,0,,0.013,0.226,0.1,-0.024,-0.024,0.02,0.024,0.565,2.261
1970/01/01/05:33:32.888000,140,0,0,,0.0108,0.225,0.1,-0.02,-0.02,0.02,0.02,0.565,2.251
1970/01/01/05:33:32.985000,141,0,0,,0.0093,0.225,0.1,-0.017,-0.017,0.02,0.017,0.564,2.246
1970/01/01/05:33:33.087000,142,0,0,,0.0093,0.225,0.1,-0.017,-0.017,0.02,0.017,0.557,2.246
1970/01/01/05:33:33.186000,143,0,0,,0.0092,0.225,0.1,-0.017,-0.017,0.02,0.017,0.548,2.247
1970/01/01/05:33:33.287000,144,0,0,,0.0063,0.224,0.1,-0.012,-0.012,0.02,0.012,0.549,2.237
1970/01/01/05:33:33.387000,145,0,0,,0.0042,0.223,0.1,-0.008,-0.008,0.02,0.008,0.549,2.229
1970/01/01/05:33:33.486000,146,0,0,,0.0039,0.223,0.1,-0.007,-0.007,0.02,0.007,0.543,2.228
1970/01/01/05:33:33.587000,147,0,0,,0.0039,0.223,0.1,-0.007,-0.007,0.02,0.007,0.534,2.228
1970/01/01/05:33:33.687000,148,0,0,,0.0015,0.222,0.1,-0.003,-0.003,0.02,0.003,0.533,2.22
1970/01/01/05:33:33.787000,149,0,0,,0.0006,0.221,0.1,0.001,0.001,0.02,0.001,0.533,2.211
1970/01/01/05:33:33.885000,150,0,0,,0.001,0.221,0.1,0.002,0.002,0.02,0.002,0.527,2.21
1970/01/01/05:33:33.986000,151,0,0,,0.0009,0.221,0.1,0.002,0.002,0.02,0.002,0.519,2.21
1970/01/01/05:33:34.087000,152,0,0,,0.0026,0.22,0.1,0.005,0.005,0.02,0.005,0.516,2.204
1970/01/01/05:33:34.186000,153,0,0,,0.0054,0.219,0.1,0.01,0.01,0.02,0.01,0.516,2.194
1970/01/01/05:33:34.287000,154,0,0,,0.0057,0.219,0.1,0.011,0.011,0.02,0.011,0.512,2.192
1970/01/01/05:33:34.387000,155,0,0,,0.0055,0.219,0.1,0.011,0.011,0.02,0.011,0.503,2.191
1970/01/01/05:33:34.487000,156,0,0,,0.0066,0.219,0.1,0.013,0.013,0.02,0.013,0.499,2.187
1970/01/01/05:33:34.586000,157,0,0,,0.0094,0.218,0.1,0.018,0.018,0.02,0.018,0.499,2.178
1970/01/01/05:33:34.687000,158,0,0,,0.0103,0.217,0.1,0.02,0.02,0.02,0.02,0.497,2.172
1970/01/01/05:33:34.787000,159,0,0,,0.01,0.217,0.1,0.02,0.02,0.02,0.02,0.488,2.171
1970/01/01/05:33:34.887000,160,0,0,,0.0104,0.217,0.1,0.021,0.021,0.02,0.021,0.481,2.169
1970/01/01/05:33:34.987000,161,0,0,,0.0133,0.216,0.1,0.026,0.026,0.02,0.026,0.481,2.16
1970/01/01/05:33:35.087000,162,0,0,,0.0148,0.215,0.1,0.029,0.029,0.02,0.029,0.479,2.154
1970/01/01/05:33:35.186000,163,0,0,,0.0144,0.215,0.1,0.029,0.029,0.02,0.029,0.472,2.152
1970/01/01/05:33:35.287000,164,0,0,,0.0154,0.215,0.1,0.031,0.031,0.02,0.031,0.467,2.148
1970/01/01/05:33:35.411000,165,0,0,,0.0177,0.214,0.1,0.035,0.035,0.02,0.035,0.467,2.139
1970/01/01/05:33:35.487000,166,0,0,,0.0184,0.213,0.1,0.037,0.037,0.02,0.037,0.462,2.135
1970/01/01/05:33:35.587000,167,0,0,,0.018,0.213,0.1,0.037,0.037,0.02,0.037,0.454,2.134
1970/01/01/05:33:35.687000,168,0,0,,0.0196,0.212,0.1,0.04,0.04,0.02,0.04,0.451,2.127
1970/01/01/05:33:35.787000,169,0,0,,0.0219,0.211,0.1,0.044,0.044,0.02,0.044,0.451,2.118
1970/01/01/05:33:35.887000,170,0,0,,0.022,0.211,0.1,0.045,0.045,0.02,0.045,0.445,2.115
1970/01/01/05:33:35.988000,171,0,0,,0.0215,0.211,0.1,0.045,0.045,0.02,0.045,0.436,2.113
1970/01/01/05:33:36.086000,172,0,0,,0.0232,0.21,0.1,0.048,0.048,0.02,0.048,0.434,2.106
1970/01/01/05:33:36.186000,173,0,0,,0.0259,0.209,0.1,0.053,0.053,0.02,0.053,0.434,2.097
1970/01/01/05:33:36.286000,174,0,0,,0.0253,0.209,0.1,0.053,0.053,0.02,0.053,0.427,2.095
1970/01/01/05:33:36.387000,175,0,0,,0.0255,0.209,0.1,0.054,0.054,0.02,0.054,0.421,2.091
1970/01/01/05:33:36.487000,176,0,0,,0.0278,0.208,0.1,0.058,0.058,0.02,0.058,0.42,2.083
1970/01/01/05:33:36.585000,177,0,0,,0.0285,0.207,0.1,0.06,0.06,0.02,0.06,0.416,2.078
1970/01/01/05:33:36.687000,178,0,0,,0.0279,0.207,0.1,0.06,0.06,0.02,0.06,0.408,2.075
1970/01/01/05:33:36.787000,179,0,0,,0.0302,0.206,0.1,0.064,0.064,0.02,0.064,0.407,2.066
1970/01/01/05:33:36.887000,180,0,0,,0.031,0.206,0.1,0.066,0.066,0.02,0.066,0.404,2.06
1970/01/01/05:33:36.987000,181,0,0,,0.0304,0.206,0.1,0.066,0.066,0.02,0.066,0.397,2.058
1970/01/01/05:33:37.087000,182,0,0,,0.0326,0.204,0.1,0.07,0.07,0.02,0.07,0.395,2.049
1970/01/01/05:33:37.188000,183,0,0,,0.0339,0.204,0.1,0.073,0.073,0.02,0.073,0.392,2.043
1970/01/01/05:33:37.287000,184,0,0,,0.0332,0.204,0.1,0.073,0.073,0.02,0.073,0.384,2.04
1970/01/01/05:33:37.387000,185,0,0,,0.0348,0.203,0.1,0.076,0.076,0.02,0.076,0.382,2.032
1970/01/01/05:33:37.487000,186,0,0,,0.0356,0.202,0.1,0.078,0.078,0.02,0.078,0.379,2.027
1970/01/01/05:33:37.587000,187,0,0,,0.0354,0.202,0.1,0.079,0.079,0.02,0.079,0.371,2.022
1970/01/01/05:33:37.687000,188,0,0,,0.0377,0.201,0.1,0.083,0.083,0.02,0.083,0.37,2.013
1970/01/01/05:33:37.787000,189,0,0,,0.0369,0.201,0.1,0.083,0.083,0.02,0.083,0.363,2.01
1970/01/01/05:33:37.888000,190,0,0,,0.0385,0.2,0.1,0.086,0.086,0.02,0.086,0.361,2.002
1970/01/01/05:33:37.987000,191,0,0,,0.039,0.199,0.1,0.088,0.088,0.02,0.088,0.356,1.997
1970/01/01/05:33:38.086000,192,0,0,,0.0391,0.199,0.1,0.089,0.089,0.02,0.089,0.351,1.992
1970/01/01/05:33:38.187000,193,0,0,,0.0406,0.198,0.1,0.092,0.092,0.02,0.092,0.349,1.984
1970/01/01/05:33:38.287000,194,0,0,,0.0398,0.198,0.1,0.092,0.092,0.02,0.092,0.342,1.98
1970/01/01/05:33:38.386000,195,0,0,,0.0419,0.196,0.1,0.096,0.096,0.02,0.096,0.34,1.972
1970/01/01/05:33:38.487000,196,0,0,,0.0418,0.196,0.1,0.097,0.097,0.02,0.097,0.335,1.967
1970/01/01/05:33:38.587000,197,0,0,,0.0417,0.196,0.1,0.098,0.098,0.02,0.098,0.329,1.961
1970/01/01/05:33:38.687000,198,0,0,,0.0432,0.194,0.1,0.101,0.101,0.02,0.101,0.327,1.953
1970/01/01/05:33:38.786000,199,0,0,,0.0424,0.194,0.1,0.101,0.101,0.02,0.101,0.32,1.949
1970/01/01/05:33:38.886000,200,0,0,,0.0439,0.193,0.1,0.104,0.104,0.02,0.104,0.318,1.941
1970/01/01/05:33:38.987000,201,0,0,,0.0445,0.193,0.1,0.106,0.106,0.02,0.106,0.314,1.935
1970/01/01/05:33:39.087000,202,0,0,,0.0444,0.192,0.1,0.107,0.107,0.02,0.107,0.309,1.93
1970/01/01/05:33:39.186000,203,0,0,,0.046,0.191,0.1,0.11,0.11,0.02,0.11,0.308,1.922
1970/01/01/05:33:39.286000,204,0,0,,0.0451,0.191,0.1,0.11,0.11,0.02,0.11,0.301,1.918
1970/01/01/05:33:39.387000,205,0,0,,0.0464,0.19,0.1,0.113,0.113,0.02,0.113,0.298,1.909
1970/01/01/05:33:39.487000,206,0,0,,0.0465,0.19,0.1,0.114,0.114,0.02,0.114,0.294,1.903
1970/01/01/05:33:39.588000,207,0,0,,0.0469,0.189,0.1,0.116,0.116,0.02,0.116,0.289,1.897
1970/01/01/05:33:39.687000,208,0,0,,0.0478,0.188,0.1,0.118,0.118,0.02,0.118,0.287,1.889
1970/01/01/05:33:39.786000,209,0,0,,0.0474,0.188,0.1,0.119,0.119,0.02,0.119,0.28,1.884
1970/01/01/05:33:39.887000,210,0,0,,0.0488,0.186,0.1,0.122,0.122,0.02,0.122,0.278,1.875
1970/01/01/05:33:39.986000,211,0,0,,0.0479,0.186,0.1,0.122,0.122,0.02,0.122,0.272,1.87
1970/01/01/05:33:40.087000,212,0,0,,0.0494,0.185,0.1,0.125,0.125,0.02,0.125,0.27,1.862
1970/01/01/05:33:40.185000,213,0,0,,0.0485,0.185,0.1,0.125,0.125,0.02,0.125,0.264,1.857
1970/01/01/05:33:40.285000,214,0,0,,0.0498,0.184,0.1,0.128,0.128,0.02,0.128,0.261,1.849
1970/01/01/05:33:40.405000,215,0,0,,0.0499,0.183,0.1,0.129,0.129,0.02,0.129,0.258,1.842
1970/01/01/05:33:40.487000,216,0,0,,0.0504,0.183,0.1,0.131,0.131,0.02,0.131,0.254,1.835
1970/01/01/05:33:40.585000,217,0,0,,0.0502,0.182,0.1,0.132,0.132,0.02,0.132,0.249,1.829
1970/01/01/05:33:40.688000,218,0,0,,0.0507,0.181,0.1,0.134,0.134,0.02,0.134,0.245,1.822
1970/01/01/05:33:40.786000,219,0,0,,0.0509,0.181,0.1,0.135,0.135,0.02,0.135,0.242,1.815
1970/01/01/05:33:40.886000,220,0,0,,0.0513,0.18,0.1,0.137,0.137,0.02,0.137,0.238,1.808
1970/01/01/05:33:40.985000,221,0,0,,0.0513,0.179,0.1,0.138,0.138,0.02,0.138,0.234,1.801
1970/01/01/05:33:41.087000,222,0,0,,0.0519,0.178,0.1,0.14,0.14,0.02,0.14,0.231,1.794
1970/01/01/05:33:41.188000,223,0,0,,0.0524,0.177,0.1,0.142,0.142,0.02,0.142,0.227,1.786
1970/01/01/05:33:41.286000,224,0,0,,0.0516,0.177,0.1,0.142,0.142,0.02,0.142,0.222,1.78
1970/01/01/05:33:41.387000,225,0,0,,0.0529,0.176,0.1,0.145,0.145,0.02,0.145,0.22,1.772
1970/01/01/05:33:41.487000,226,0,0,,0.0521,0.175,0.1,0.145,0.145,0.02,0.145,0.215,1.765
1970/01/01/05:33:41.587000,227,0,0,,0.0528,0.175,0.1,0.147,0.147,0.02,0.147,0.212,1.757
1970/01/01/05:33:41.687000,228,0,0,,0.0526,0.174,0.1,0.148,0.148,0.02,0.148,0.208,1.751
1970/01/01/05:33:41.786000,229,0,0,,0.0532,0.173,0.1,0.15,0.15,0.02,0.15,0.205,1.743
1970/01/01/05:33:41.888000,230,0,0,,0.0529,0.173,0.1,0.151,0.151,0.02,0.151,0.2,1.736
1970/01/01/05:33:41.987000,231,0,0,,0.0537,0.172,0.1,0.153,0.153,0.02,0.153,0.198,1.728
1970/01/01/05:33:42.087000,232,0,0,,0.0528,0.171,0.1,0.153,0.153,0.02,0.153,0.193,1.722
1970/01/01/05:33:42.187000,233,0,0,,0.0542,0.17,0.1,0.156,0.156,0.02,0.156,0.191,1.714
1970/01/01/05:33:42.287000,234,0,0,,0.0539,0.169,0.1,0.157,0.157,0.02,0.157,0.187,1.706
1970/01/01/05:33:42.386000,235,0,0,,0.0538,0.169,0.1,0.158,0.158,0.02,0.158,0.183,1.699
1970/01/01/05:33:42.485000,236,0,0,,0.0537,0.168,0.1,0.159,0.159,0.02,0.159,0.179,1.692
1970/01/01/05:33:42.586000,237,0,0,,0.0542,0.167,0.1,0.161,0.161,0.02,0.161,0.176,1.683
1970/01/01/05:33:42.687000,238,0,0,,0.054,0.166,0.1,0.162,0.162,0.02,0.162,0.172,1.676
1970/01/01/05:33:42.786000,239,0,0,,0.0539,0.165,0.1,0.163,0.163,0.02,0.163,0.168,1.668
1970/01/01/05:33:42.887000,240,0,0,,0.0539,0.165,0.1,0.164,0.164,0.02,0.164,0.165,1.661
1970/01/01/05:33:42.987000,241,0,0,,0.0537,0.164,0.1,0.165,0.165,0.02,0.165,0.161,1.653
1970/01/01/05:33:43.086000,242,0,0,,0.0536,0.163,0.1,0.166,0.166,0.02,0.166,0.157,1.646
1970/01/01/05:33:43.186000,243,0,0,,0.0541,0.162,0.1,0.168,0.168,0.02,0.168,0.154,1.638
1970/01/01/05:33:43.286000,244,0,0,,0.054,0.162,0.1,0.169,0.169,0.02,0.169,0.151,1.631
1970/01/01/05:33:43.388000,245,0,0,,0.0538,0.161,0.1,0.17,0.17,0.02,0.17,0.147,1.623
1970/01/01/05:33:43.487000,246,0,0,,0.0538,0.16,0.1,0.171,0.171,0.02,0.171,0.144,1.614
1970/01/01/05:33:43.588000,247,0,0,,0.0536,0.159,0.1,0.172,0.172,0.02,0.172,0.14,1.606
1970/01/01/05:33:43.687000,248,0,0,,0.0536,0.158,0.1,0.173,0.173,0.02,0.173,0.137,1.597
1970/01/01/05:33:43.788000,249,0,0,,0.0534,0.158,0.1,0.174,0.174,0.02,0.174,0.133,1.59
1970/01/01/05:33:43.888000,250,0,0,,0.054,0.157,0.1,0.176,0.176,0.02,0.176,0.131,1.582
1970/01/01/05:33:43.988000,251,0,0,,0.0531,0.156,0.1,0.176,0.176,0.02,0.176,0.126,1.575
1970/01/01/05:33:44.087000,252,0,0,,0.0533,0.155,0.1,0.177,0.177,0.02,0.177,0.124,1.567
1970/01/01/05:33:44.186000,253,0,0,,0.0532,0.154,0.1,0.178,0.178,0.02,0.178,0.121,1.559
1970/01/01/05:33:44.286000,254,0,0,,0.0534,0.153,0.1,0.18,0.18,0.02,0.18,0.117,1.55
1970/01/01/05:33:44.386000,255,0,0,,0.0527,0.153,0.1,0.18,0.18,0.02,0.18,0.113,1.542
1970/01/01/05:33:44.487000,256,0,0,,0.0528,0.152,0.1,0.181,0.181,0.02,0.181,0.111,1.534
1970/01/01/05:33:44.586000,257,0,0,,0.0527,0.151,0.1,0.182,0.182,0.02,0.182,0.108,1.526
1970/01/01/05:33:44.687000,258,0,0,,0.0525,0.15,0.1,0.183,0.183,0.02,0.183,0.104,1.518
1970/01/01/05:33:44.786000,259,0,0,,0.0524,0.15,0.1,0.184,0.184,0.02,0.184,0.101,1.51
1970/01/01/05:33:44.886000,260,0,0,,0.0525,0.148,0.1,0.185,0.185,0.02,0.185,0.099,1.501
1970/01/01/05:33:44.988000,261,0,0,,0.0522,0.148,0.1,0.186,0.186,0.02,0.186,0.095,1.493
1970/01/01/05:33:45.087000,262,0,0,,0.0521,0.147,0.1,0.187,0.187,0.02,0.187,0.092,1.486
1970/01/01/05:33:45.187000,263,0,0,,0.0522,0.146,0.1,0.188,0.188,0.02,0.188,0.09,1.477
1970/01/01/05:33:45.286000,264,0,0,,0.0516,0.146,0.1,0.188,0.188,0.02,0.188,0.087,1.47
1970/01/01/05:33:45.401000,265,0,0,,0.0516,0.144,0.1,0.189,0.189,0.02,0.189,0.084,1.461
1970/01/01/05:33:45.486000,266,0,0,,0.0517,0.144,0.1,0.19,0.19,0.02,0.19,0.082,1.453
1970/01/01/05:33:45.588000,267,0,0,,0.0513,0.142,0.1,0.191,0.191,0.02,0.191,0.078,1.443
1970/01/01/05:33:45.687000,268,0,0,,0.0505,0.142,0.1,0.191,0.191,0.02,0.191,0.074,1.435
1970/01/01/05:33:45.787000,269,0,0,,0.0507,0.141,0.1,0.192,0.192,0.02,0.192,0.072,1.427
1970/01/01/05:33:45.887000,270,0,0,,0.0507,0.14,0.1,0.193,0.193,0.02,0.193,0.07,1.418
1970/01/01/05:33:45.984000,271,0,0,,0.0504,0.139,0.1,0.194,0.194,0.02,0.194,0.066,1.41
1970/01/01/05:33:46.087000,272,0,0,,0.0505,0.139,0.1,0.195,0.195,0.02,0.195,0.064,1.402
1970/01/01/05:33:46.188000,273,0,0,,0.0505,0.138,0.1,0.196,0.196,0.02,0.196,0.062,1.393
1970/01/01/05:33:46.286000,274,0,0,,0.0499,0.137,0.1,0.196,0.196,0.02,0.196,0.059,1.384
1970/01/01/05:33:46.386000,275,0,0,,0.0498,0.136,0.1,0.197,0.197,0.02,0.197,0.056,1.376
1970/01/01/05:33:46.487000,276,0,0,,0.0499,0.135,0.1,0.198,0.198,0.02,0.198,0.054,1.368
1970/01/01/05:33:46.586000,277,0,0,,0.0492,0.134,0.1,0.198,0.198,0.02,0.198,0.051,1.359
1970/01/01/05:33:46.686000,278,0,0,,0.0491,0.134,0.1,0.199,0.199,0.02,0.199,0.048,1.351
1970/01/01/05:33:46.787000,279,0,0,,0.0487,0.132,0.1,0.199,0.199,0.02,0.199,0.046,1.342
1970/01/01/05:33:46.887000,280,0,0,,0.0492,0.131,0.1,0.2,0.2,0.02,0.2,0.046,1.333
1970/01/01/05:33:46.985000,281,0,0,,0.049,0.131,0.1,0.2,0.2,0.02,0.2,0.045,1.325
1970/01/01/05:33:47.087000,282,0,0,,0.049,0.13,0.1,0.2,0.2,0.02,0.2,0.045,1.316
1970/01/01/05:33:47.187000,283,0,0,,0.049,0.129,0.1,0.2,0.2,0.02,0.2,0.045,1.307
1970/01/01/05:33:47.286000,284,0,0,,0.0488,0.128,0.1,0.2,0.2,0.02,0.2,0.044,1.297
1970/01/01/05:33:47.387000,285,0,0,,0.0488,0.127,0.1,0.2,0.2,0.02,0.2,0.044,1.288
1970/01/01/05:33:47.487000,286,0,0,,0.049,0.126,0.1,0.201,0.201,0.02,0.201,0.043,1.279
1970/01/01/05:33:47.587000,287,0,0,,0.049,0.125,0.1,0.201,0.201,0.02,0.201,0.043,1.27
1970/01/01/05:33:47.687000,288,0,0,,0.0488,0.124,0.1,0.201,0.201,0.02,0.201,0.042,1.261
1970/01/01/05:33:47.787000,289,0,0,,0.0488,0.124,0.1,0.201,0.201,0.02,0.201,0.042,1.253
1970/01/01/05:33:47.887000,290,0,0,,0.0488,0.122,0.1,0.201,0.201,0.02,0.201,0.042,1.243
1970/01/01/05:33:47.986000,291,0,0,,0.0486,0.122,0.1,0.201,0.201,0.02,0.201,0.041,1.235
1970/01/01/05:33:48.084000,292,0,0,,0.0491,0.121,0.1,0.202,0.202,0.02,0.202,0.041,1.226
1970/01/01/05:33:48.187000,293,0,0,,0.0491,0.12,0.1,0.202,0.202,0.02,0.202,0.041,1.217
1970/01/01/05:33:48.286000,294,0,0,,0.0489,0.119,0.1,0.202,0.202,0.02,0.202,0.04,1.208
1970/01/01/05:33:48.387000,295,0,0,,0.0487,0.118,0.1,0.202,0.202,0.02,0.202,0.039,1.2
1970/01/01/05:33:48.486000,296,0,0,,0.0487,0.117,0.1,0.202,0.202,0.02,0.202,0.039,1.189
1970/01/01/05:33:48.587000,297,0,0,,0.0491,0.116,0.1,0.203,0.203,0.02,0.203,0.039,1.181
1970/01/01/05:33:48.687000,298,0,0,,0.0489,0.115,0.1,0.203,0.203,0.02,0.203,0.038,1.172
1970/01/01/05:33:48.786000,299,0,0,,0.0489,0.115,0.1,0.203,0.203,0.02,0.203,0.038,1.164
1970/01/01/05:33:48.888000,300,0,0,,0.0489,0.114,0.1,0.203,0.203,0.02,0.203,0.038,1.155
1970/01/01/05:33:48.986000,301,0,0,,0.0487,0.113,0.1,0.203,0.203,0.02,0.203,0.037,1.147
1970/01/01/05:33:49.085000,302,0,0,,0.0487,0.112,0.1,0.203,0.203,0.02,0.203,0.037,1.138
1970/01/01/05:33:49.187000,303,0,0,,0.0487,0.111,0.1,0.203,0.203,0.02,0.203,0.037,1.13
1970/01/01/05:33:49.287000,304,0,0,,0.0485,0.11,0.1,0.203,0.203,0.02,0.203,0.036,1.121
1970/01/01/05:33:49.387000,305,0,0,,0.049,0.11,0.1,0.204,0.204,0.02,0.204,0.036,1.113
1970/01/01/05:33:49.487000,306,0,0,,0.049,0.108,0.1,0.204,0.204,0.02,0.204,0.036,1.103
1970/01/01/05:33:49.588000,307,0,0,,0.0487,0.108,0.1,0.204,0.204,0.02,0.204,0.035,1.095
1970/01/01/05:33:49.688000,308,0,0,,0.0488,0.107,0.1,0.204,0.204,0.02,0.204,0.035,1.087
1970/01/01/05:33:49.787000,309,0,0,,0.0488,0.106,0.1,0.204,0.204,0.02,0.204,0.035,1.078
1970/01/01/05:33:49.887000,310,0,0,,0.0485,0.105,0.1,0.204,0.204,0.02,0.204,0.034,1.069
1970/01/01/05:33:49.985000,311,0,0,,0.0486,0.104,0.1,0.204,0.204,0.02,0.204,0.034,1.06
1970/01/01/05:33:50.087000,312,0,0,,0.0486,0.103,0.1,0.204,0.204,0.02,0.204,0.034,1.051
1970/01/01/05:33:50.186000,313,0,0,,0.0488,0.103,0.1,0.205,0.205,0.02,0.205,0.033,1.043
1970/01/01/05:33:50.287000,314,0,0,,0.0488,0.102,0.1,0.205,0.205,0.02,0.205,0.033,1.034
1970/01/01/05:33:50.397000,315,0,0,,0.0486,0.101,0.1,0.205,0.205,0.02,0.205,0.032,1.026
1970/01/01/05:33:50.487000,316,0,0,,0.0486,0.099,0.1,0.205,0.205,0.02,0.205,0.032,1.015
1970/01/01/05:33:50.587000,317,0,0,,0.0486,0.099,0.1,0.205,0.205,0.02,0.205,0.032,1.007
1970/01/01/05:33:50.687000,318,0,0,,0.0486,0.098,0.1,0.205,0.205,0.02,0.205,0.032,0.998
1970/01/01/05:33:50.787000,319,0,0,,0.0484,0.097,0.1,0.205,0.205,0.02,0.205,0.031,0.99
1970/01/01/05:33:50.887000,320,0,0,,0.0484,0.096,0.1,0.205,0.205,0.02,0.205,0.031,0.981
1970/01/01/05:33:50.986000,321,0,0,,0.0488,0.095,0.1,0.206,0.206,0.02,0.206,0.031,0.972
1970/01/01/05:33:51.085000,322,0,0,,0.0486,0.095,0.1,0.206,0.206,0.02,0.206,0.03,0.964
1970/01/01/05:33:51.186000,323,0,0,,0.0486,0.094,0.1,0.206,0.206,0.02,0.206,0.03,0.955
1970/01/01/05:33:51.287000,324,0,0,,0.0486,0.093,0.1,0.206,0.206,0.02,0.206,0.03,0.946
1970/01/01/05:33:51.386000,325,0,0,,0.0484,0.092,0.1,0.206,0.206,0.02,0.206,0.029,0.937
1970/01/01/05:33:51.487000,326,0,0,,0.0484,0.091,0.1,0.206,0.206,0.02,0.206,0.029,0.929
1970/01/01/05:33:51.587000,327,0,0,,0.0484,0.09,0.1,0.206,0.206,0.02,0.206,0.029,0.92
1970/01/01/05:33:51.687000,328,0,0,,0.0484,0.09,0.1,0.206,0.206,0.02,0.206,0.029,0.912
1970/01/01/05:33:51.787000,329,0,0,,0.0482,0.088,0.1,0.206,0.206,0.02,0.206,0.028,0.902
1970/01/01/05:33:51.887000,330,0,0,,0.0487,0.087,0.1,0.207,0.207,0.02,0.207,0.028,0.893
1970/01/01/05:33:51.986000,331,0,0,,0.0486,0.087,0.1,0.207,0.207,0.02,0.207,0.028,0.884
1970/01/01/05:33:52.087000,332,0,0,,0.0486,0.086,0.1,0.207,0.207,0.02,0.207,0.028,0.876
1970/01/01/05:33:52.186000,333,0,0,,0.0484,0.085,0.1,0.207,0.207,0.02,0.207,0.027,0.866
1970/01/01/05:33:52.287000,334,0,0,,0.0484,0.084,0.1,0.207,0.207,0.02,0.207,0.027,0.857
1970/01/01/05:33:52.387000,335,0,0,,0.0484,0.083,0.1,0.207,0.207,0.02,0.207,0.027,0.849
1970/01/01/05:33:52.486000,336,0,0,,0.0482,0.082,0.1,0.207,0.207,0.02,0.207,0.026,0.839
1970/01/01/05:33:52.586000,337,0,0,,0.0482,0.081,0.1,0.207,0.207,0.02,0.207,0.026,0.83
1970/01/01/05:33:52.687000,338,0,0,,0.0482,0.08,0.1,0.207,0.207,0.02,0.207,0.026,0.821
1970/01/01/05:33:52.787000,339,0,0,,0.0487,0.08,0.1,0.208,0.208,0.02,0.208,0.026,0.813
1970/01/01/05:33:52.887000,340,0,0,,0.0484,0.079,0.1,0.208,0.208,0.02,0.208,0.025,0.805
1970/01/01/05:33:52.987000,341,0,0,,0.0485,0.077,0.1,0.208,0.208,0.02,0.208,0.025,0.795
1970/01/01/05:33:53.087000,342,0,0,,0.0485,0.077,0.1,0.208,0.208,0.02,0.208,0.025,0.786
1970/01/01/05:33:53.187000,343,0,0,,0.0482,0.076,0.1,0.208,0.208,0.02,0.208,0.024,0.778
1970/01/01/05:33:53.287000,344,0,0,,0.0483,0.075,0.1,0.208,0.208,0.02,0.208,0.024,0.769
1970/01/01/05:33:53.386000,345,0,0,,0.0483,0.074,0.1,0.208,0.208,0.02,0.208,0.024,0.76
1970/01/01/05:33:53.488000,346,0,0,,0.048,0.074,0.1,0.208,0.208,0.02,0.208,0.023,0.752
1970/01/01/05:33:53.587000,347,0,0,,0.048,0.073,0.1,0.208,0.208,0.02,0.208,0.023,0.744
1970/01/01/05:33:53.687000,348,0,0,,0.048,0.071,0.1,0.208,0.208,0.02,0.208,0.023,0.734
1970/01/01/05:33:53.787000,349,0,0,,0.048,0.071,0.1,0.208,0.208,0.02,0.208,0.023,0.726
1970/01/01/05:33:53.887000,350,0,0,,0.0478,0.07,0.1,0.208,0.208,0.02,0.208,0.022,0.717
1970/01/01/05:33:53.987000,351,0,0,,0.0483,0.069,0.1,0.209,0.209,0.02,0.209,0.022,0.708
1970/01/01/05:33:54.087000,352,0,0,,0.0483,0.068,0.1,0.209,0.209,0.02,0.209,0.022,0.699
1970/01/01/05:33:54.187000,353,0,0,,0.048,0.067,0.1,0.209,0.209,0.02,0.209,0.021,0.691
1970/01/01/05:33:54.286000,354,0,0,,0.0483,0.066,0.1,0.209,0.209,0.02,0.209,0.022,0.681
1970/01/01/05:33:54.387000,355,0,0,,0.048,0.066,0.1,0.209,0.209,0.02,0.209,0.021,0.673
1970/01/01/05:33:54.488000,356,0,0,,0.0481,0.065,0.1,0.209,0.209,0.02,0.209,0.021,0.665
1970/01/01/05:33:54.586000,357,0,0,,0.0481,0.063,0.1,0.209,0.209,0.02,0.209,0.021,0.655
1970/01/01/05:33:54.687000,358,0,0,,0.0481,0.063,0.1,0.209,0.209,0.02,0.209,0.021,0.647
1970/01/01/05:33:54.787000,359,0,0,,0.0478,0.062,0.1,0.209,0.209,0.02,0.209,0.02,0.639
1970/01/01/05:33:54.886000,360,0,0,,0.0479,0.061,0.1,0.209,0.209,0.02,0.209,0.02,0.63
1970/01/01/05:33:54.987000,361,0,0,,0.0479,0.06,0.1,0.209,0.209,0.02,0.209,0.02,0.62
1970/01/01/05:33:55.087000,362,0,0,,0.0476,0.059,0.1,0.209,0.209,0.02,0.209,0.019,0.611
1970/01/01/05:33:55.186000,363,0,0,,0.0477,0.059,0.1,0.209,0.209,0.02,0.209,0.019,0.603
1970/01/01/05:33:55.287000,364,0,0,,0.0481,0.058,0.1,0.21,0.21,0.02,0.21,0.019,0.594
1970/01/01/05:33:55.392000,365,0,0,,0.0481,0.057,0.1,0.21,0.21,0.02,0.21,0.019,0.585
1970/01/01/05:33:55.486000,366,0,0,,0.0481,0.056,0.1,0.21,0.21,0.02,0.21,0.019,0.576
1970/01/01/05:33:55.587000,367,0,0,,0.0479,0.055,0.1,0.21,0.21,0.02,0.21,0.018,0.568
1970/01/01/05:33:55.687000,368,0,0,,0.0479,0.054,0.1,0.21,0.21,0.02,0.21,0.018,0.559
1970/01/01/05:33:55.786000,369,0,0,,0.0479,0.053,0.1,0.21,0.21,0.02,0.21,0.018,0.549
1970/01/01/05:33:55.886000,370,0,0,,0.0479,0.052,0.1,0.21,0.21,0.02,0.21,0.018,0.54
1970/01/01/05:33:55.987000,371,0,0,,0.0479,0.051,0.1,0.21,0.21,0.02,0.21,0.018,0.531
1970/01/01/05:33:56.086000,372,0,0,,0.0476,0.05,0.1,0.21,0.21,0.02,0.21,0.017,0.522
1970/01/01/05:33:56.186000,373,0,0,,0.0477,0.049,0.1,0.21,0.21,0.02,0.21,0.017,0.513
1970/01/01/05:33:56.287000,374,0,0,,0.0477,0.049,0.1,0.21,0.21,0.02,0.21,0.017,0.504
1970/01/01/05:33:56.386000,375,0,0,,0.0477,0.048,0.1,0.21,0.21,0.02,0.21,0.017,0.495
1970/01/01/05:33:56.486000,376,0,0,,0.0474,0.047,0.1,0.21,0.21,0.02,0.21,0.016,0.487
1970/01/01/05:33:56.587000,377,0,0,,0.0475,0.047,0.1,0.21,0.21,0.02,0.21,0.016,0.483
1970/01/01/05:33:56.686000,378,0,0,,0.0475,0.048,0.1,0.21,0.21,0.02,0.21,0.016,0.483
1970/01/01/05:33:56.788000,379,0,0,,0.0475,0.048,0.1,0.21,0.21,0.02,0.21,0.016,0.483
1970/01/01/05:33:56.887000,380,0,0,,0.0475,0.048,0.1,0.21,0.21,0.02,0.21,0.016,0.483
1970/01/01/05:33:56.987000,381,0,0,,0.0475,0.048,0.1,0.21,0.21,0.02,0.21,0.016,0.483
1970/01/01/05:33:57.086000,382,0,0,,0.0475,0.048,0.1,0.21,0.21,0.02,0.21,0.016,0.483
1970/01/01/05:33:57.186000,383,0,0,,0.0477,0.048,0.1,0.21,0.21,0.02,0.21,0.017,0.483
1970/01/01/05:33:57.288000,384,0,0,,0.0477,0.048,0.1,0.21,0.21,0.02,0.21,0.017,0.483
1970/01/01/05:33:57.387000,385,0,0,,0.0477,0.048,0.1,0.21,0.21,0.02,0.21,0.017,0.483
1970/01/01/05:33:57.486000,386,0,0,,0.0477,0.048,0.1,0.21,0.21,0.02,0.21,0.017,0.482
1970/01/01/05:33:57.587000,387,0,0,,0.0477,0.048,0.1,0.21,0.21,0.02,0.21,0.017,0.482
1970/01/01/05:33:57.687000,388,0,0,,0.0477,0.048,0.1,0.21,0.21,0.02,0.21,0.017,0.482
1970/01/01/05:33:57.788000,389,0,0,,0.0477,0.048,0.1,0.21,0.21,0.02,0.21,0.017,0.482
1970/01/01/05:33:57.887000,390,0,0,,0.0477,0.048,0.1,0.21,0.21,0.02,0.21,0.017,0.482
1970/01/01/05:33:57.987000,391,0,0,,0.0477,0.048,0.1,0.21,0.21,0.02,0.21,0.017,0.482
1970/01/01/05:33:58.087000,392,0,0,,0.0477,0.048,0.1,0.21,0.21,0.02,0.21,0.017,0.482
1970/01/01/05:33:58.186000,393,0,0,,0.0477,0.048,0.1,0.21,0.21,0.02,0.21,0.017,0.482
1970/01/01/05:33:58.287000,394,0,0,,0.0477,0.048,0.1,0.21,0.21,0.02,0.21,0.017,0.482
1970/01/01/05:33:58.387000,395,0,0,,0.0474,0.048,0.1,0.209,0.209,0.02,0.209,0.018,0.482
1970/01/01/05:33:58.486000,396,0,0,,0.0474,0.048,0.1,0.209,0.209,0.02,0.209,0.018,0.482
1970/01/01/05:33:58.587000,397,0,0,,0.0474,0.048,0.1,0.209,0.209,0.02,0.209,0.018,0.482
1970/01/01/05:33:58.687000,398,0,0,,0.0474,0.048,0.1,0.209,0.209,0.02,0.209,0.018,0.482
