time,.header.seq,.header.stamp.secs,.header.stamp.nsecs,.header.frame_id,.angular_vel,.linear_vel,.kp_dist,.kd_dist,.kp_angle,.kd_angle,.y_offset,.fork_angle,.dist_2_pallet
1970/01/01/05:30:49.398000,1,0,0,,0.0587,0.299,0.09,0.1,-0.673,0.02,0.673,0.586,3.351
1970/01/01/05:30:49.499000,2,0,0,,0.0514,0.297,0.09,0.1,-0.673,0.02,0.673,0.597,3.327
1970/01/01/05:30:49.599000,3,0,0,,0.0426,0.294,0.09,0.1,-0.672,0.02,0.672,0.609,3.301
1970/01/01/05:30:49.698000,4,0,0,,0.0332,0.292,0.09,0.1,-0.671,0.02,0.671,0.622,3.275
1970/01/01/05:30:49.796000,5,0,0,,0.0244,0.29,0.09,0.1,-0.67,0.02,0.67,0.634,3.248
1970/01/01/05:30:49.899000,6,0,0,,0.0163,0.287,0.09,0.1,-0.669,0.02,0.669,0.645,3.222
1970/01/01/05:30:49.998000,7,0,0,,0.0089,0.285,0.09,0.1,-0.669,0.02,0.669,0.656,3.197
1970/01/01/05:30:50.097000,8,0,0,,0.0016,0.283,0.09,0.1,-0.668,0.02,0.668,0.666,3.173
1970/01/01/05:30:50.197000,9,0,0,,0.0071,0.281,0.09,0.1,-0.666,0.02,0.666,0.677,3.147
1970/01/01/05:30:50.298000,10,0,0,,0.0144,0.278,0.09,0.1,-0.665,0.02,0.665,0.687,3.121
1970/01/01/05:30:50.398000,11,0,0,,0.0223,0.276,0.09,0.1,-0.664,0.02,0.664,0.698,3.095
1970/01/01/05:30:50.498000,12,0,0,,0.0309,0.274,0.09,0.1,-0.662,0.02,0.662,0.709,3.069
1970/01/01/05:30:50.597000,13,0,0,,0.0406,0.271,0.09,0.1,-0.66,0.02,0.66,0.722,3.041
1970/01/01/05:30:50.698000,14,0,0,,0.0497,0.268,0.09,0.1,-0.658,0.02,0.658,0.734,3.013
1970/01/01/05:30:50.798000,15,0,0,,0.0575,0.266,0.09,0.1,-0.656,0.02,0.656,0.744,2.986
1970/01/01/05:30:50.898000,16,0,0,,0.0664,0.264,0.09,0.1,-0.654,0.02,0.654,0.756,2.959
1970/01/01/05:30:50.998000,17,0,0,,0.0776,0.26,0.09,0.1,-0.65,0.02,0.65,0.77,2.926
1970/01/01/05:30:51.098000,18,0,0,,0.0868,0.258,0.09,0.1,-0.645,0.02,0.645,0.78,2.9
1970/01/01/05:30:51.198000,19,0,0,,0.0948,0.256,0.09,0.1,-0.638,0.02,0.638,0.787,2.874
1970/01/01/05:30:51.299000,20,0,0,,0.1024,0.254,0.09,0.1,-0.63,0.02,0.63,0.793,2.85
1970/01/01/05:30:51.398000,21,0,0,,0.1101,0.252,0.09,0.1,-0.617,0.02,0.617,0.796,2.825
1970/01/01/05:30:51.497000,22,0,0,,0.1149,0.251,0.09,0.1,-0.606,0.02,0.606,0.796,2.81
1970/01/01/05:30:51.598000,23,0,0,,0.118,0.251,0.09,0.1,-0.594,0.02,0.594,0.793,2.801
1970/01/01/05:30:51.698000,24,0,0,,0.1198,0.252,0.09,0.1,-0.582,0.02,0.582,0.788,2.798
1970/01/01/05:30:51.798000,25,0,0,,0.1193,0.252,0.09,0.1,-0.571,0.02,0.571,0.78,2.801
1970/01/01/05:30:51.898000,26,0,0,,0.1167,0.254,0.09,0.1,-0.561,0.02,0.561,0.769,2.81
1970/01/01/05:30:51.998000,27,0,0,,0.1155,0.254,0.09,0.1,-0.55,0.02,0.55,0.76,2.816
1970/01/01/05:30:52.099000,28,0,0,,0.1129,0.256,0.09,0.1,-0.54,0.02,0.54,0.749,2.827
1970/01/01/05:30:52.198000,29,0,0,,0.1106,0.256,0.09,0.1,-0.529,0.02,0.529,0.738,2.835
1970/01/01/05:30:52.298000,30,0,0,,0.1083,0.256,0.09,0.1,-0.518,0.02,0.518,0.727,2.842
1970/01/01/05:30:52.398000,31,0,0,,0.1062,0.257,0.09,0.1,-0.508,0.02,0.508,0.717,2.85
1970/01/01/05:30:52.508000,32,0,0,,0.1036,0.258,0.09,0.1,-0.498,0.02,0.498,0.706,2.857
1970/01/01/05:30:52.598000,33,0,0,,0.101,0.259,0.09,0.1,-0.488,0.02,0.488,0.695,2.865
1970/01/01/05:30:52.698000,34,0,0,,0.0987,0.259,0.09,0.1,-0.477,0.02,0.477,0.684,2.872
1970/01/01/05:30:52.799000,35,0,0,,0.0951,0.26,0.09,0.1,-0.468,0.02,0.468,0.671,2.882
1970/01/01/05:30:52.899000,36,0,0,,0.0925,0.261,0.09,0.1,-0.458,0.02,0.458,0.66,2.888
1970/01/01/05:30:52.998000,37,0,0,,0.0894,0.261,0.09,0.1,-0.449,0.02,0.449,0.648,2.896
1970/01/01/05:30:53.098000,38,0,0,,0.0867,0.262,0.09,0.1,-0.438,0.02,0.438,0.636,2.903
1970/01/01/05:30:53.198000,39,0,0,,0.0837,0.263,0.09,0.1,-0.429,0.02,0.429,0.624,2.911
1970/01/01/05:30:53.298000,40,0,0,,0.0793,0.264,0.09,0.1,-0.421,0.02,0.421,0.609,2.922
1970/01/01/05:30:53.398000,41,0,0,,0.0767,0.264,0.09,0.1,-0.412,0.02,0.412,0.598,2.927
1970/01/01/05:30:53.497000,42,0,0,,0.0719,0.265,0.09,0.1,-0.403,0.02,0.403,0.581,2.937
1970/01/01/05:30:53.598000,43,0,0,,0.0671,0.267,0.09,0.1,-0.396,0.02,0.396,0.565,2.949
1970/01/01/05:30:53.698000,44,0,0,,0.0623,0.267,0.09,0.1,-0.388,0.02,0.388,0.548,2.957
1970/01/01/05:30:53.798000,45,0,0,,0.0566,0.268,0.09,0.1,-0.381,0.02,0.381,0.529,2.968
1970/01/01/05:30:53.899000,46,0,0,,0.0518,0.269,0.09,0.1,-0.374,0.02,0.374,0.512,2.976
1970/01/01/05:30:53.998000,47,0,0,,0.0475,0.269,0.09,0.1,-0.367,0.02,0.367,0.496,2.982
1970/01/01/05:30:54.098000,48,0,0,,0.0384,0.271,0.09,0.1,-0.364,0.02,0.364,0.468,2.997
1970/01/01/05:30:54.199000,49,0,0,,0.0367,0.27,0.09,0.1,-0.353,0.02,0.353,0.457,2.996
1970/01/01/05:30:54.298000,50,0,0,,0.0295,0.272,0.09,0.1,-0.35,0.02,0.35,0.433,3.006
1970/01/01/05:30:54.399000,51,0,0,,0.0228,0.272,0.09,0.1,-0.346,0.02,0.346,0.411,3.012
1970/01/01/05:30:54.498000,52,0,0,,0.0215,0.271,0.09,0.1,-0.336,0.02,0.336,0.4,3.009
1970/01/01/05:30:54.598000,53,0,0,,0.0154,0.272,0.09,0.1,-0.333,0.02,0.333,0.378,3.015
1970/01/01/05:30:54.699000,54,0,0,,0.0065,0.272,0.09,0.1,-0.333,0.02,0.333,0.351,3.021
1970/01/01/05:30:54.798000,55,0,0,,0.0055,0.271,0.09,0.1,-0.323,0.02,0.323,0.34,3.016
1970/01/01/05:30:54.897000,56,0,0,,0.005,0.27,0.09,0.1,-0.313,0.02,0.313,0.329,3.011
1970/01/01/05:30:54.999000,57,0,0,,0.0017,0.271,0.09,0.1,-0.312,0.02,0.312,0.305,3.013
1970/01/01/05:30:55.098000,58,0,0,,0.0098,0.271,0.09,0.1,-0.312,0.02,0.312,0.279,3.013
1970/01/01/05:30:55.198000,59,0,0,,0.013,0.27,0.09,0.1,-0.306,0.02,0.306,0.263,3.007
1970/01/01/05:30:55.297000,60,0,0,,0.0133,0.269,0.09,0.1,-0.297,0.02,0.297,0.252,3.0
1970/01/01/05:30:55.399000,61,0,0,,0.0147,0.269,0.09,0.1,-0.291,0.02,0.291,0.24,2.994
1970/01/01/05:30:55.499000,62,0,0,,0.0216,0.269,0.09,0.1,-0.291,0.02,0.291,0.215,2.989
1970/01/01/05:30:55.598000,63,0,0,,0.0267,0.268,0.09,0.1,-0.288,0.02,0.288,0.194,2.982
1970/01/01/05:30:55.698000,64,0,0,,0.0268,0.266,0.09,0.1,-0.28,0.02,0.28,0.184,2.972
1970/01/01/05:30:55.797000,65,0,0,,0.0269,0.266,0.09,0.1,-0.272,0.02,0.272,0.173,2.962
1970/01/01/05:30:55.897000,66,0,0,,0.0287,0.265,0.09,0.1,-0.267,0.02,0.267,0.159,2.954
1970/01/01/05:30:55.998000,67,0,0,,0.0348,0.264,0.09,0.1,-0.267,0.02,0.267,0.135,2.943
1970/01/01/05:30:56.098000,68,0,0,,0.0409,0.263,0.09,0.1,-0.267,0.02,0.267,0.112,2.931
1970/01/01/05:30:56.199000,69,0,0,,0.043,0.262,0.09,0.1,-0.262,0.02,0.262,0.097,2.919
1970/01/01/05:30:56.299000,70,0,0,,0.043,0.26,0.09,0.1,-0.255,0.02,0.255,0.086,2.907
1970/01/01/05:30:56.398000,71,0,0,,0.0426,0.259,0.09,0.1,-0.248,0.02,0.248,0.076,2.894
1970/01/01/05:30:56.498000,72,0,0,,0.0442,0.258,0.09,0.1,-0.244,0.02,0.244,0.062,2.882
1970/01/01/05:30:56.598000,73,0,0,,0.0493,0.256,0.09,0.1,-0.244,0.02,0.244,0.04,2.866
1970/01/01/05:30:56.697000,74,0,0,,0.0547,0.255,0.09,0.1,-0.244,0.02,0.244,0.018,2.849
1970/01/01/05:30:56.799000,75,0,0,,0.0569,0.253,0.09,0.1,-0.241,0.02,0.241,0.004,2.833
1970/01/01/05:30:56.898000,76,0,0,,0.0566,0.252,0.09,0.1,-0.235,0.02,0.235,0.006,2.819
1970/01/01/05:30:56.998000,77,0,0,,0.056,0.251,0.09,0.1,-0.229,0.02,0.229,0.016,2.804
1970/01/01/05:30:57.098000,78,0,0,,0.0572,0.249,0.09,0.1,-0.225,0.02,0.225,0.03,2.788
1970/01/01/05:30:57.198000,79,0,0,,0.0615,0.247,0.09,0.1,-0.225,0.02,0.225,0.05,2.768
1970/01/01/05:30:57.296000,80,0,0,,0.0658,0.245,0.09,0.1,-0.225,0.02,0.225,0.069,2.748
1970/01/01/05:30:57.398000,81,0,0,,0.068,0.244,0.09,0.1,-0.223,0.02,0.223,0.083,2.73
1970/01/01/05:30:57.499000,82,0,0,,0.0677,0.243,0.09,0.1,-0.218,0.02,0.218,0.093,2.714
1970/01/01/05:30:57.598000,83,0,0,,0.0672,0.241,0.09,0.1,-0.213,0.02,0.213,0.103,2.698
1970/01/01/05:30:57.696000,84,0,0,,0.0681,0.239,0.09,0.1,-0.21,0.02,0.21,0.115,2.68
1970/01/01/05:30:57.798000,85,0,0,,0.0717,0.237,0.09,0.1,-0.21,0.02,0.21,0.133,2.658
1970/01/01/05:30:57.898000,86,0,0,,0.0753,0.235,0.09,0.1,-0.21,0.02,0.21,0.15,2.636
1970/01/01/05:30:57.996000,87,0,0,,0.0771,0.233,0.09,0.1,-0.208,0.02,0.208,0.164,2.616
1970/01/01/05:30:58.097000,88,0,0,,0.0768,0.232,0.09,0.1,-0.204,0.02,0.204,0.173,2.599
1970/01/01/05:30:58.196000,89,0,0,,0.0769,0.231,0.09,0.1,-0.201,0.02,0.201,0.182,2.582
1970/01/01/05:30:58.298000,90,0,0,,0.0782,0.229,0.09,0.1,-0.199,0.02,0.199,0.195,2.563
1970/01/01/05:30:58.398000,91,0,0,,0.0811,0.226,0.09,0.1,-0.199,0.02,0.199,0.21,2.54
1970/01/01/05:30:58.498000,92,0,0,,0.0823,0.225,0.09,0.1,-0.197,0.02,0.197,0.222,2.52
1970/01/01/05:30:58.599000,93,0,0,,0.0822,0.224,0.09,0.1,-0.194,0.02,0.194,0.23,2.503
1970/01/01/05:30:58.699000,94,0,0,,0.082,0.222,0.09,0.1,-0.191,0.02,0.191,0.239,2.485
1970/01/01/05:30:58.797000,95,0,0,,0.0845,0.22,0.09,0.1,-0.191,0.02,0.191,0.253,2.464
1970/01/01/05:30:58.897000,96,0,0,,0.0872,0.217,0.09,0.1,-0.191,0.02,0.191,0.267,2.441
1970/01/01/05:30:58.998000,97,0,0,,0.0881,0.216,0.09,0.1,-0.189,0.02,0.189,0.278,2.421
1970/01/01/05:30:59.099000,98,0,0,,0.0885,0.214,0.09,0.1,-0.187,0.02,0.187,0.287,2.403
1970/01/01/05:30:59.198000,99,0,0,,0.0887,0.213,0.09,0.1,-0.185,0.02,0.185,0.295,2.385
1970/01/01/05:30:59.298000,100,0,0,,0.0906,0.211,0.09,0.1,-0.185,0.02,0.185,0.306,2.364
1970/01/01/05:30:59.398000,101,0,0,,0.092,0.209,0.09,0.1,-0.185,0.02,0.185,0.313,2.346
1970/01/01/05:30:59.497000,102,0,0,,0.0935,0.208,0.09,0.1,-0.186,0.02,0.186,0.317,2.331
1970/01/01/05:30:59.598000,103,0,0,,0.0957,0.207,0.09,0.1,-0.189,0.02,0.189,0.318,2.316
1970/01/01/05:30:59.699000,104,0,0,,0.0951,0.207,0.09,0.1,-0.189,0.02,0.189,0.314,2.31
1970/01/01/05:30:59.798000,105,0,0,,0.093,0.208,0.09,0.1,-0.189,0.02,0.189,0.302,2.309
1970/01/01/05:30:59.899000,106,0,0,,0.0941,0.207,0.09,0.1,-0.193,0.02,0.193,0.294,2.305
1970/01/01/05:30:59.997000,107,0,0,,0.0924,0.209,0.09,0.1,-0.194,0.02,0.194,0.281,2.311
1970/01/01/05:31:00.098000,108,0,0,,0.09,0.209,0.09,0.1,-0.195,0.02,0.195,0.265,2.318
1970/01/01/05:31:00.198000,109,0,0,,0.0881,0.21,0.09,0.1,-0.197,0.02,0.197,0.249,2.327
1970/01/01/05:31:00.298000,110,0,0,,0.0862,0.211,0.09,0.1,-0.199,0.02,0.199,0.233,2.335
1970/01/01/05:31:00.398000,111,0,0,,0.0845,0.211,0.09,0.1,-0.201,0.02,0.201,0.218,2.342
1970/01/01/05:31:00.499000,112,0,0,,0.0825,0.212,0.09,0.1,-0.203,0.02,0.203,0.202,2.348
1970/01/01/05:31:00.597000,113,0,0,,0.0804,0.212,0.09,0.1,-0.205,0.02,0.205,0.186,2.354
1970/01/01/05:31:00.698000,114,0,0,,0.0785,0.213,0.09,0.1,-0.207,0.02,0.207,0.171,2.359
1970/01/01/05:31:00.799000,115,0,0,,0.0765,0.213,0.09,0.1,-0.209,0.02,0.209,0.156,2.363
1970/01/01/05:31:00.899000,116,0,0,,0.0745,0.213,0.09,0.1,-0.211,0.02,0.211,0.141,2.366
1970/01/01/05:31:00.997000,117,0,0,,0.0725,0.214,0.09,0.1,-0.213,0.02,0.213,0.126,2.369
1970/01/01/05:31:01.098000,118,0,0,,0.0705,0.214,0.09,0.1,-0.215,0.02,0.215,0.112,2.371
1970/01/01/05:31:01.197000,119,0,0,,0.0677,0.214,0.09,0.1,-0.216,0.02,0.216,0.096,2.374
1970/01/01/05:31:01.297000,120,0,0,,0.0656,0.214,0.09,0.1,-0.218,0.02,0.218,0.082,2.375
1970/01/01/05:31:01.397000,121,0,0,,0.0636,0.214,0.09,0.1,-0.22,0.02,0.22,0.068,2.375
1970/01/01/05:31:01.499000,122,0,0,,0.06,0.214,0.09,0.1,-0.22,0.02,0.22,0.051,2.377
1970/01/01/05:31:01.600000,123,0,0,,0.0579,0.214,0.09,0.1,-0.222,0.02,0.222,0.038,2.376
1970/01/01/05:31:01.698000,124,0,0,,0.0558,0.214,0.09,0.1,-0.224,0.02,0.224,0.024,2.375
1970/01/01/05:31:01.797000,125,0,0,,0.0529,0.214,0.09,0.1,-0.225,0.02,0.225,0.009,2.374
1970/01/01/05:31:01.898000,126,0,0,,0.0502,0.213,0.09,0.1,-0.226,0.02,0.226,0.005,2.372
1970/01/01/05:31:01.998000,127,0,0,,0.0481,0.213,0.09,0.1,-0.228,0.02,0.228,0.018,2.369
1970/01/01/05:31:02.098000,128,0,0,,0.0454,0.213,0.09,0.1,-0.229,0.02,0.229,0.032,2.366
1970/01/01/05:31:02.198000,129,0,0,,0.0426,0.212,0.09,0.1,-0.23,0.02,0.23,0.046,2.363
1970/01/01/05:31:02.299000,130,0,0,,0.04,0.212,0.09,0.1,-0.231,0.02,0.231,0.059,2.359
1970/01/01/05:31:02.396000,131,0,0,,0.0374,0.212,0.09,0.1,-0.232,0.02,0.232,0.072,2.355
1970/01/01/05:31:02.499000,132,0,0,,0.0351,0.211,0.09,0.1,-0.234,0.02,0.234,0.085,2.35
1970/01/01/05:31:02.598000,133,0,0,,0.0324,0.211,0.09,0.1,-0.235,0.02,0.235,0.098,2.345
1970/01/01/05:31:02.698000,134,0,0,,0.0297,0.21,0.09,0.1,-0.236,0.02,0.236,0.111,2.339
1970/01/01/05:31:02.798000,135,0,0,,0.0272,0.209,0.09,0.1,-0.237,0.02,0.237,0.123,2.333
1970/01/01/05:31:02.899000,136,0,0,,0.0245,0.209,0.09,0.1,-0.238,0.02,0.238,0.136,2.327
1970/01/01/05:31:02.996000,137,0,0,,0.0217,0.208,0.09,0.1,-0.239,0.02,0.239,0.149,2.321
1970/01/01/05:31:03.097000,138,0,0,,0.0192,0.208,0.09,0.1,-0.24,0.02,0.24,0.161,2.314
1970/01/01/05:31:03.197000,139,0,0,,0.0166,0.207,0.09,0.1,-0.241,0.02,0.241,0.173,2.306
1970/01/01/05:31:03.299000,140,0,0,,0.014,0.206,0.09,0.1,-0.242,0.02,0.242,0.185,2.299
1970/01/01/05:31:03.398000,141,0,0,,0.0114,0.205,0.09,0.1,-0.243,0.02,0.243,0.197,2.291
1970/01/01/05:31:03.497000,142,0,0,,0.009,0.205,0.09,0.1,-0.244,0.02,0.244,0.208,2.283
1970/01/01/05:31:03.598000,143,0,0,,0.0063,0.204,0.09,0.1,-0.245,0.02,0.245,0.22,2.275
1970/01/01/05:31:03.699000,144,0,0,,0.0039,0.203,0.09,0.1,-0.246,0.02,0.246,0.231,2.266
1970/01/01/05:31:03.798000,145,0,0,,0.001,0.202,0.09,0.1,-0.246,0.02,0.246,0.243,2.257
1970/01/01/05:31:03.898000,146,0,0,,0.0013,0.201,0.09,0.1,-0.247,0.02,0.247,0.253,2.248
1970/01/01/05:31:03.998000,147,0,0,,0.004,0.201,0.09,0.1,-0.248,0.02,0.248,0.265,2.239
1970/01/01/05:31:04.098000,148,0,0,,0.0067,0.2,0.09,0.1,-0.248,0.02,0.248,0.276,2.229
1970/01/01/05:31:04.198000,149,0,0,,0.009,0.199,0.09,0.1,-0.249,0.02,0.249,0.286,2.22
1970/01/01/05:31:04.297000,150,0,0,,0.0117,0.198,0.09,0.1,-0.249,0.02,0.249,0.297,2.21
1970/01/01/05:31:04.398000,151,0,0,,0.0141,0.197,0.09,0.1,-0.25,0.02,0.25,0.307,2.2
1970/01/01/05:31:04.498000,152,0,0,,0.0164,0.196,0.09,0.1,-0.251,0.02,0.251,0.317,2.19
1970/01/01/05:31:04.597000,153,0,0,,0.0189,0.195,0.09,0.1,-0.251,0.02,0.251,0.327,2.18
1970/01/01/05:31:04.697000,154,0,0,,0.0212,0.194,0.09,0.1,-0.252,0.02,0.252,0.337,2.17
1970/01/01/05:31:04.798000,155,0,0,,0.0234,0.193,0.09,0.1,-0.253,0.02,0.253,0.346,2.159
1970/01/01/05:31:04.899000,156,0,0,,0.0259,0.192,0.09,0.1,-0.253,0.02,0.253,0.356,2.149
1970/01/01/05:31:04.996000,157,0,0,,0.0284,0.191,0.09,0.1,-0.253,0.02,0.253,0.366,2.138
1970/01/01/05:31:05.098000,158,0,0,,0.0306,0.191,0.09,0.1,-0.254,0.02,0.254,0.375,2.128
1970/01/01/05:31:05.198000,159,0,0,,0.0328,0.189,0.09,0.1,-0.254,0.02,0.254,0.384,2.117
1970/01/01/05:31:05.298000,160,0,0,,0.0351,0.189,0.09,0.1,-0.254,0.02,0.254,0.393,2.107
1970/01/01/05:31:05.397000,161,0,0,,0.0373,0.188,0.09,0.1,-0.255,0.02,0.255,0.402,2.096
1970/01/01/05:31:05.498000,162,0,0,,0.0394,0.187,0.09,0.1,-0.255,0.02,0.255,0.41,2.086
1970/01/01/05:31:05.597000,163,0,0,,0.0416,0.186,0.09,0.1,-0.255,0.02,0.255,0.419,2.075
1970/01/01/05:31:05.697000,164,0,0,,0.0439,0.185,0.09,0.1,-0.255,0.02,0.255,0.428,2.064
1970/01/01/05:31:05.797000,165,0,0,,0.0459,0.184,0.09,0.1,-0.256,0.02,0.256,0.436,2.053
1970/01/01/05:31:05.897000,166,0,0,,0.048,0.183,0.09,0.1,-0.256,0.02,0.256,0.444,2.043
1970/01/01/05:31:05.998000,167,0,0,,0.05,0.182,0.09,0.1,-0.256,0.02,0.256,0.452,2.032
1970/01/01/05:31:06.097000,168,0,0,,0.0521,0.181,0.09,0.1,-0.256,0.02,0.256,0.46,2.021
1970/01/01/05:31:06.197000,169,0,0,,0.0541,0.18,0.09,0.1,-0.256,0.02,0.256,0.468,2.01
1970/01/01/05:31:06.298000,170,0,0,,0.0562,0.179,0.09,0.1,-0.256,0.02,0.256,0.476,1.999
1970/01/01/05:31:06.397000,171,0,0,,0.0582,0.178,0.09,0.1,-0.256,0.02,0.256,0.484,1.989
1970/01/01/05:31:06.498000,172,0,0,,0.0603,0.177,0.09,0.1,-0.256,0.02,0.256,0.492,1.978
1970/01/01/05:31:06.598000,173,0,0,,0.0621,0.176,0.09,0.1,-0.257,0.02,0.257,0.499,1.967
1970/01/01/05:31:06.697000,174,0,0,,0.0639,0.175,0.09,0.1,-0.257,0.02,0.257,0.506,1.956
1970/01/01/05:31:06.798000,175,0,0,,0.0659,0.174,0.09,0.1,-0.257,0.02,0.257,0.514,1.945
1970/01/01/05:31:06.898000,176,0,0,,0.0677,0.173,0.09,0.1,-0.257,0.02,0.257,0.521,1.935
1970/01/01/05:31:06.998000,177,0,0,,0.0695,0.172,0.09,0.1,-0.256,0.02,0.256,0.528,1.924
1970/01/01/05:31:07.098000,178,0,0,,0.0713,0.171,0.09,0.1,-0.256,0.02,0.256,0.535,1.913
1970/01/01/05:31:07.197000,179,0,0,,0.0731,0.17,0.09,0.1,-0.256,0.02,0.256,0.542,1.902
1970/01/01/05:31:07.298000,180,0,0,,0.0749,0.169,0.09,0.1,-0.256,0.02,0.256,0.549,1.892
1970/01/01/05:31:07.397000,181,0,0,,0.0767,0.168,0.09,0.1,-0.256,0.02,0.256,0.556,1.881
1970/01/01/05:31:07.497000,182,0,0,,0.0782,0.167,0.09,0.1,-0.256,0.02,0.256,0.562,1.87
1970/01/01/05:31:07.598000,183,0,0,,0.08,0.166,0.09,0.1,-0.256,0.02,0.256,0.569,1.86
1970/01/01/05:31:07.697000,184,0,0,,0.0815,0.165,0.09,0.1,-0.256,0.02,0.256,0.575,1.849
1970/01/01/05:31:07.796000,185,0,0,,0.0832,0.165,0.09,0.1,-0.255,0.02,0.255,0.582,1.839
1970/01/01/05:31:07.898000,186,0,0,,0.085,0.163,0.09,0.1,-0.255,0.02,0.255,0.589,1.828
1970/01/01/05:31:07.998000,187,0,0,,0.0865,0.162,0.09,0.1,-0.254,0.02,0.254,0.595,1.817
1970/01/01/05:31:08.097000,188,0,0,,0.0877,0.162,0.09,0.1,-0.253,0.02,0.253,0.6,1.807
1970/01/01/05:31:08.197000,189,0,0,,0.0883,0.161,0.09,0.1,-0.251,0.02,0.251,0.603,1.797
1970/01/01/05:31:08.297000,190,0,0,,0.0882,0.16,0.09,0.1,-0.248,0.02,0.248,0.604,1.787
1970/01/01/05:31:08.397000,191,0,0,,0.0874,0.16,0.09,0.1,-0.245,0.02,0.245,0.602,1.78
1970/01/01/05:31:08.497000,192,0,0,,0.0867,0.159,0.09,0.1,-0.241,0.02,0.241,0.601,1.772
1970/01/01/05:31:08.597000,193,0,0,,0.0843,0.158,0.09,0.1,-0.233,0.02,0.233,0.595,1.763
1970/01/01/05:31:08.697000,194,0,0,,0.0821,0.158,0.09,0.1,-0.231,0.02,0.231,0.586,1.76
1970/01/01/05:31:08.798000,195,0,0,,0.0795,0.158,0.09,0.1,-0.225,0.02,0.225,0.578,1.757
1970/01/01/05:31:08.898000,196,0,0,,0.0773,0.158,0.09,0.1,-0.22,0.02,0.22,0.571,1.754
1970/01/01/05:31:08.997000,197,0,0,,0.0737,0.159,0.09,0.1,-0.218,0.02,0.218,0.555,1.758
1970/01/01/05:31:09.098000,198,0,0,,0.0713,0.158,0.09,0.1,-0.211,0.02,0.211,0.549,1.756
1970/01/01/05:31:09.197000,199,0,0,,0.0683,0.159,0.09,0.1,-0.211,0.02,0.211,0.533,1.761
1970/01/01/05:31:09.297000,200,0,0,,0.0655,0.158,0.09,0.1,-0.205,0.02,0.205,0.524,1.759
1970/01/01/05:31:09.398000,201,0,0,,0.063,0.159,0.09,0.1,-0.201,0.02,0.201,0.514,1.76
1970/01/01/05:31:09.498000,202,0,0,,0.0598,0.159,0.09,0.1,-0.201,0.02,0.201,0.497,1.763
1970/01/01/05:31:09.598000,203,0,0,,0.0577,0.158,0.09,0.1,-0.195,0.02,0.195,0.491,1.76
1970/01/01/05:31:09.697000,204,0,0,,0.0555,0.158,0.09,0.1,-0.191,0.02,0.191,0.481,1.76
1970/01/01/05:31:09.797000,205,0,0,,0.0527,0.159,0.09,0.1,-0.191,0.02,0.191,0.465,1.763
1970/01/01/05:31:09.898000,206,0,0,,0.0505,0.158,0.09,0.1,-0.186,0.02,0.186,0.457,1.76
1970/01/01/05:31:09.997000,207,0,0,,0.0486,0.158,0.09,0.1,-0.181,0.02,0.181,0.449,1.758
1970/01/01/05:31:10.097000,208,0,0,,0.0456,0.159,0.09,0.1,-0.181,0.02,0.181,0.431,1.76
1970/01/01/05:31:10.198000,209,0,0,,0.0434,0.158,0.09,0.1,-0.176,0.02,0.176,0.422,1.757
1970/01/01/05:31:10.298000,210,0,0,,0.0416,0.158,0.09,0.1,-0.172,0.02,0.172,0.413,1.755
1970/01/01/05:31:10.398000,211,0,0,,0.0389,0.158,0.09,0.1,-0.171,0.02,0.171,0.397,1.755
1970/01/01/05:31:10.497000,212,0,0,,0.0371,0.157,0.09,0.1,-0.166,0.02,0.166,0.389,1.751
1970/01/01/05:31:10.598000,213,0,0,,0.0356,0.157,0.09,0.1,-0.161,0.02,0.161,0.382,1.748
1970/01/01/05:31:10.696000,214,0,0,,0.0332,0.157,0.09,0.1,-0.161,0.02,0.161,0.365,1.748
1970/01/01/05:31:10.798000,215,0,0,,0.0311,0.157,0.09,0.1,-0.158,0.02,0.158,0.354,1.745
1970/01/01/05:31:10.896000,216,0,0,,0.0298,0.156,0.09,0.1,-0.152,0.02,0.152,0.348,1.741
1970/01/01/05:31:10.996000,217,0,0,,0.0282,0.156,0.09,0.1,-0.151,0.02,0.151,0.336,1.739
1970/01/01/05:31:11.099000,218,0,0,,0.0261,0.156,0.09,0.1,-0.15,0.02,0.15,0.322,1.737
1970/01/01/05:31:11.199000,219,0,0,,0.0246,0.155,0.09,0.1,-0.144,0.02,0.144,0.315,1.732
1970/01/01/05:31:11.296000,220,0,0,,0.0235,0.155,0.09,0.1,-0.141,0.02,0.141,0.307,1.729
1970/01/01/05:31:11.398000,221,0,0,,0.0216,0.155,0.09,0.1,-0.141,0.02,0.141,0.292,1.726
1970/01/01/05:31:11.497000,222,0,0,,0.0201,0.155,0.09,0.1,-0.137,0.02,0.137,0.283,1.722
1970/01/01/05:31:11.599000,223,0,0,,0.0192,0.154,0.09,0.1,-0.132,0.02,0.132,0.277,1.717
1970/01/01/05:31:11.697000,224,0,0,,0.0178,0.154,0.09,0.1,-0.131,0.02,0.131,0.265,1.715
1970/01/01/05:31:11.797000,225,0,0,,0.0161,0.154,0.09,0.1,-0.13,0.02,0.13,0.252,1.711
1970/01/01/05:31:11.899000,226,0,0,,0.0151,0.153,0.09,0.1,-0.125,0.02,0.125,0.246,1.706
1970/01/01/05:31:11.998000,227,0,0,,0.0143,0.153,0.09,0.1,-0.121,0.02,0.121,0.239,1.701
1970/01/01/05:31:12.097000,228,0,0,,0.0129,0.153,0.09,0.1,-0.121,0.02,0.121,0.225,1.698
1970/01/01/05:31:12.197000,229,0,0,,0.0115,0.152,0.09,0.1,-0.119,0.02,0.119,0.214,1.693
1970/01/01/05:31:12.298000,230,0,0,,0.0107,0.151,0.09,0.1,-0.114,0.02,0.114,0.208,1.687
1970/01/01/05:31:12.397000,231,0,0,,0.0099,0.151,0.09,0.1,-0.111,0.02,0.111,0.199,1.682
1970/01/01/05:31:12.497000,232,0,0,,0.0086,0.151,0.09,0.1,-0.111,0.02,0.111,0.186,1.678
1970/01/01/05:31:12.596000,233,0,0,,0.0076,0.15,0.09,0.1,-0.108,0.02,0.108,0.177,1.672
1970/01/01/05:31:12.698000,234,0,0,,0.007,0.149,0.09,0.1,-0.104,0.02,0.104,0.171,1.666
1970/01/01/05:31:12.797000,235,0,0,,0.0061,0.149,0.09,0.1,-0.103,0.02,0.103,0.16,1.661
1970/01/01/05:31:12.897000,236,0,0,,0.0048,0.149,0.09,0.1,-0.102,0.02,0.102,0.147,1.656
1970/01/01/05:31:12.998000,237,0,0,,0.0043,0.148,0.09,0.1,-0.098,0.02,0.098,0.142,1.649
1970/01/01/05:31:13.098000,238,0,0,,0.0038,0.147,0.09,0.1,-0.095,0.02,0.095,0.134,1.644
1970/01/01/05:31:13.197000,239,0,0,,0.0027,0.147,0.09,0.1,-0.095,0.02,0.095,0.121,1.638
1970/01/01/05:31:13.299000,240,0,0,,0.0023,0.146,0.09,0.1,-0.093,0.02,0.093,0.117,1.629
1970/01/01/05:31:13.397000,241,0,0,,0.0021,0.145,0.09,0.1,-0.093,0.02,0.093,0.115,1.621
1970/01/01/05:31:13.499000,242,0,0,,0.002,0.144,0.09,0.1,-0.093,0.02,0.093,0.115,1.611
1970/01/01/05:31:13.598000,243,0,0,,0.002,0.143,0.09,0.1,-0.092,0.02,0.092,0.114,1.602
1970/01/01/05:31:13.697000,244,0,0,,0.002,0.142,0.09,0.1,-0.092,0.02,0.092,0.113,1.593
1970/01/01/05:31:13.797000,245,0,0,,0.002,0.142,0.09,0.1,-0.091,0.02,0.091,0.113,1.585
1970/01/01/05:31:13.898000,246,0,0,,0.0019,0.141,0.09,0.1,-0.091,0.02,0.091,0.112,1.575
1970/01/01/05:31:13.997000,247,0,0,,0.0019,0.14,0.09,0.1,-0.09,0.02,0.09,0.111,1.566
1970/01/01/05:31:14.098000,248,0,0,,0.0019,0.139,0.09,0.1,-0.089,0.02,0.089,0.11,1.555
1970/01/01/05:31:14.197000,249,0,0,,0.0018,0.138,0.09,0.1,-0.089,0.02,0.089,0.109,1.546
1970/01/01/05:31:14.299000,250,0,0,,0.0018,0.137,0.09,0.1,-0.089,0.02,0.089,0.109,1.537
1970/01/01/05:31:14.399000,251,0,0,,0.0018,0.137,0.09,0.1,-0.088,0.02,0.088,0.108,1.529
1970/01/01/05:31:14.498000,252,0,0,,0.0016,0.136,0.09,0.1,-0.088,0.02,0.088,0.106,1.52
1970/01/01/05:31:14.598000,253,0,0,,0.0016,0.135,0.09,0.1,-0.087,0.02,0.087,0.106,1.511
1970/01/01/05:31:14.698000,254,0,0,,0.0016,0.134,0.09,0.1,-0.087,0.02,0.087,0.105,1.502
1970/01/01/05:31:14.797000,255,0,0,,0.0015,0.133,0.09,0.1,-0.087,0.02,0.087,0.104,1.493
1970/01/01/05:31:14.899000,256,0,0,,0.0015,0.133,0.09,0.1,-0.086,0.02,0.086,0.104,1.485
1970/01/01/05:31:14.999000,257,0,0,,0.0015,0.132,0.09,0.1,-0.085,0.02,0.085,0.103,1.476
1970/01/01/05:31:15.098000,258,0,0,,0.0015,0.131,0.09,0.1,-0.085,0.02,0.085,0.102,1.467
1970/01/01/05:31:15.197000,259,0,0,,0.0014,0.131,0.09,0.1,-0.085,0.02,0.085,0.101,1.459
1970/01/01/05:31:15.296000,260,0,0,,0.0014,0.129,0.09,0.1,-0.084,0.02,0.084,0.101,1.449
1970/01/01/05:31:15.399000,261,0,0,,0.0014,0.129,0.09,0.1,-0.084,0.02,0.084,0.1,1.44
1970/01/01/05:31:15.498000,262,0,0,,0.0013,0.128,0.09,0.1,-0.084,0.02,0.084,0.099,1.432
1970/01/01/05:31:15.597000,263,0,0,,0.0012,0.127,0.09,0.1,-0.083,0.02,0.083,0.098,1.422
1970/01/01/05:31:15.699000,264,0,0,,0.0012,0.126,0.09,0.1,-0.083,0.02,0.083,0.098,1.413
1970/01/01/05:31:15.798000,265,0,0,,0.0012,0.126,0.09,0.1,-0.082,0.02,0.082,0.097,1.405
1970/01/01/05:31:15.898000,266,0,0,,0.0012,0.125,0.09,0.1,-0.082,0.02,0.082,0.096,1.396
1970/01/01/05:31:15.998000,267,0,0,,0.0012,0.124,0.09,0.1,-0.081,0.02,0.081,0.096,1.387
1970/01/01/05:31:16.098000,268,0,0,,0.0012,0.123,0.09,0.1,-0.081,0.02,0.081,0.095,1.378
1970/01/01/05:31:16.197000,269,0,0,,0.0011,0.123,0.09,0.1,-0.081,0.02,0.081,0.094,1.37
1970/01/01/05:31:16.298000,270,0,0,,0.0011,0.122,0.09,0.1,-0.08,0.02,0.08,0.094,1.361
1970/01/01/05:31:16.397000,271,0,0,,0.0011,0.121,0.09,0.1,-0.08,0.02,0.08,0.093,1.352
1970/01/01/05:31:16.497000,272,0,0,,0.001,0.12,0.09,0.1,-0.079,0.02,0.079,0.092,1.344
1970/01/01/05:31:16.598000,273,0,0,,0.001,0.119,0.09,0.1,-0.079,0.02,0.079,0.092,1.334
1970/01/01/05:31:16.698000,274,0,0,,0.001,0.118,0.09,0.1,-0.079,0.02,0.079,0.091,1.325
1970/01/01/05:31:16.798000,275,0,0,,0.0009,0.118,0.09,0.1,-0.078,0.02,0.078,0.09,1.317
1970/01/01/05:31:16.897000,276,0,0,,0.0009,0.117,0.09,0.1,-0.078,0.02,0.078,0.09,1.308
1970/01/01/05:31:16.997000,277,0,0,,0.0009,0.116,0.09,0.1,-0.077,0.02,0.077,0.089,1.299
1970/01/01/05:31:17.097000,278,0,0,,0.0009,0.115,0.09,0.1,-0.077,0.02,0.077,0.088,1.29
1970/01/01/05:31:17.197000,279,0,0,,0.0008,0.115,0.09,0.1,-0.077,0.02,0.077,0.088,1.282
1970/01/01/05:31:17.299000,280,0,0,,0.0008,0.114,0.09,0.1,-0.076,0.02,0.076,0.087,1.273
1970/01/01/05:31:17.398000,281,0,0,,0.0008,0.113,0.09,0.1,-0.076,0.02,0.076,0.086,1.264
1970/01/01/05:31:17.498000,282,0,0,,0.0008,0.112,0.09,0.1,-0.076,0.02,0.076,0.086,1.255
1970/01/01/05:31:17.597000,283,0,0,,0.0008,0.111,0.09,0.1,-0.075,0.02,0.075,0.085,1.247
1970/01/01/05:31:17.698000,284,0,0,,0.0008,0.111,0.09,0.1,-0.075,0.02,0.075,0.085,1.238
1970/01/01/05:31:17.797000,285,0,0,,0.0007,0.11,0.09,0.1,-0.075,0.02,0.075,0.084,1.229
1970/01/01/05:31:17.897000,286,0,0,,0.0007,0.109,0.09,0.1,-0.074,0.02,0.074,0.084,1.219
1970/01/01/05:31:17.997000,287,0,0,,0.0007,0.108,0.09,0.1,-0.074,0.02,0.074,0.083,1.21
1970/01/01/05:31:18.099000,288,0,0,,0.0006,0.107,0.09,0.1,-0.074,0.02,0.074,0.082,1.202
1970/01/01/05:31:18.198000,289,0,0,,0.0006,0.106,0.09,0.1,-0.073,0.02,0.073,0.082,1.191
1970/01/01/05:31:18.299000,290,0,0,,0.0006,0.106,0.09,0.1,-0.073,0.02,0.073,0.081,1.183
1970/01/01/05:31:18.397000,291,0,0,,0.0006,0.105,0.09,0.1,-0.072,0.02,0.072,0.081,1.174
1970/01/01/05:31:18.498000,292,0,0,,0.0006,0.104,0.09,0.1,-0.072,0.02,0.072,0.08,1.164
1970/01/01/05:31:18.598000,293,0,0,,0.0006,0.103,0.09,0.1,-0.072,0.02,0.072,0.08,1.155
1970/01/01/05:31:18.697000,294,0,0,,0.0006,0.102,0.09,0.1,-0.071,0.02,0.071,0.079,1.147
1970/01/01/05:31:18.798000,295,0,0,,0.0005,0.102,0.09,0.1,-0.071,0.02,0.071,0.078,1.138
1970/01/01/05:31:18.898000,296,0,0,,0.0005,0.101,0.09,0.1,-0.071,0.02,0.071,0.078,1.129
1970/01/01/05:31:18.998000,297,0,0,,0.0005,0.1,0.09,0.1,-0.07,0.02,0.07,0.077,1.121
1970/01/01/05:31:19.096000,298,0,0,,0.0005,0.099,0.09,0.1,-0.07,0.02,0.07,0.077,1.111
1970/01/01/05:31:19.198000,299,0,0,,0.0005,0.098,0.09,0.1,-0.069,0.02,0.069,0.076,1.102
1970/01/01/05:31:19.298000,300,0,0,,0.0004,0.098,0.09,0.1,-0.069,0.02,0.069,0.075,1.094
1970/01/01/05:31:19.397000,301,0,0,,0.0004,0.097,0.09,0.1,-0.069,0.02,0.069,0.075,1.085
1970/01/01/05:31:19.498000,302,0,0,,0.0005,0.096,0.09,0.1,-0.068,0.02,0.068,0.075,1.075
1970/01/01/05:31:19.598000,303,0,0,,0.0004,0.095,0.09,0.1,-0.068,0.02,0.068,0.073,1.067
1970/01/01/05:31:19.698000,304,0,0,,0.0003,0.094,0.09,0.1,-0.068,0.02,0.068,0.073,1.058
1970/01/01/05:31:19.797000,305,0,0,,0.0003,0.094,0.09,0.1,-0.068,0.02,0.068,0.073,1.049
1970/01/01/05:31:19.898000,306,0,0,,0.0003,0.093,0.09,0.1,-0.067,0.02,0.067,0.072,1.041
1970/01/01/05:31:19.998000,307,0,0,,0.0003,0.092,0.09,0.1,-0.067,0.02,0.067,0.071,1.032
1970/01/01/05:31:20.098000,308,0,0,,0.0003,0.091,0.09,0.1,-0.067,0.02,0.067,0.071,1.023
1970/01/01/05:31:20.198000,309,0,0,,0.0002,0.091,0.09,0.1,-0.067,0.02,0.067,0.07,1.015
1970/01/01/05:31:20.297000,310,0,0,,0.0002,0.09,0.09,0.1,-0.066,0.02,0.066,0.069,1.006
1970/01/01/05:31:20.398000,311,0,0,,0.0002,0.089,0.09,0.1,-0.066,0.02,0.066,0.069,0.996
1970/01/01/05:31:20.497000,312,0,0,,0.0002,0.088,0.09,0.1,-0.066,0.02,0.066,0.069,0.986
1970/01/01/05:31:20.598000,313,0,0,,0.0002,0.087,0.09,0.1,-0.065,0.02,0.065,0.068,0.978
1970/01/01/05:31:20.697000,314,0,0,,0.0002,0.086,0.09,0.1,-0.065,0.02,0.065,0.067,0.969
1970/01/01/05:31:20.798000,315,0,0,,0.0001,0.085,0.09,0.1,-0.065,0.02,0.065,0.067,0.96
1970/01/01/05:31:20.898000,316,0,0,,0.0001,0.085,0.09,0.1,-0.065,0.02,0.065,0.066,0.952
1970/01/01/05:31:20.998000,317,0,0,,0.0001,0.084,0.09,0.1,-0.064,0.02,0.064,0.066,0.943
1970/01/01/05:31:21.098000,318,0,0,,0.0001,0.083,0.09,0.1,-0.064,0.02,0.064,0.065,0.935
1970/01/01/05:31:21.198000,319,0,0,,0.0001,0.082,0.09,0.1,-0.064,0.02,0.064,0.065,0.926
1970/01/01/05:31:21.297000,320,0,0,,0.0,0.082,0.09,0.1,-0.064,0.02,0.064,0.064,0.918
1970/01/01/05:31:21.399000,321,0,0,,0.0,0.081,0.09,0.1,-0.063,0.02,0.063,0.064,0.908
1970/01/01/05:31:21.497000,322,0,0,,0.0,0.08,0.09,0.1,-0.063,0.02,0.063,0.063,0.899
1970/01/01/05:31:21.598000,323,0,0,,0.0,0.079,0.09,0.1,-0.063,0.02,0.063,0.062,0.891
1970/01/01/05:31:21.698000,324,0,0,,0.0,0.078,0.09,0.1,-0.062,0.02,0.062,0.062,0.881
1970/01/01/05:31:21.798000,325,0,0,,0.0,0.078,0.09,0.1,-0.062,0.02,0.062,0.062,0.872
1970/01/01/05:31:21.897000,326,0,0,,0.0,0.077,0.09,0.1,-0.062,0.02,0.062,0.061,0.863
1970/01/01/05:31:21.998000,327,0,0,,0.0001,0.076,0.09,0.1,-0.062,0.02,0.062,0.06,0.855
1970/01/01/05:31:22.098000,328,0,0,,0.0001,0.075,0.09,0.1,-0.061,0.02,0.061,0.06,0.846
1970/01/01/05:31:22.196000,329,0,0,,0.0001,0.074,0.09,0.1,-0.061,0.02,0.061,0.06,0.836
1970/01/01/05:31:22.296000,330,0,0,,0.0001,0.074,0.09,0.1,-0.061,0.02,0.061,0.059,0.828
1970/01/01/05:31:22.398000,331,0,0,,0.0002,0.073,0.09,0.1,-0.061,0.02,0.061,0.058,0.819
1970/01/01/05:31:22.498000,332,0,0,,0.0001,0.072,0.09,0.1,-0.06,0.02,0.06,0.058,0.81
1970/01/01/05:31:22.597000,333,0,0,,0.0001,0.071,0.09,0.1,-0.06,0.02,0.06,0.058,0.801
1970/01/01/05:31:22.697000,334,0,0,,0.0002,0.07,0.09,0.1,-0.06,0.02,0.06,0.057,0.791
1970/01/01/05:31:22.798000,335,0,0,,0.0002,0.069,0.09,0.1,-0.06,0.02,0.06,0.057,0.782
1970/01/01/05:31:22.897000,336,0,0,,0.0002,0.069,0.09,0.1,-0.059,0.02,0.059,0.056,0.773
1970/01/01/05:31:22.998000,337,0,0,,0.0002,0.068,0.09,0.1,-0.059,0.02,0.059,0.056,0.764
1970/01/01/05:31:23.097000,338,0,0,,0.0002,0.067,0.09,0.1,-0.059,0.02,0.059,0.055,0.754
1970/01/01/05:31:23.198000,339,0,0,,0.0002,0.066,0.09,0.1,-0.059,0.02,0.059,0.055,0.745
1970/01/01/05:31:23.298000,340,0,0,,0.0002,0.066,0.09,0.1,-0.058,0.02,0.058,0.054,0.737
1970/01/01/05:31:23.398000,341,0,0,,0.0002,0.065,0.09,0.1,-0.058,0.02,0.058,0.054,0.728
1970/01/01/05:31:23.498000,342,0,0,,0.0002,0.064,0.09,0.1,-0.058,0.02,0.058,0.054,0.719
1970/01/01/05:31:23.598000,343,0,0,,0.0003,0.063,0.09,0.1,-0.058,0.02,0.058,0.053,0.71
1970/01/01/05:31:23.697000,344,0,0,,0.0002,0.062,0.09,0.1,-0.057,0.02,0.057,0.053,0.701
1970/01/01/05:31:23.797000,345,0,0,,0.0003,0.061,0.09,0.1,-0.057,0.02,0.057,0.052,0.691
1970/01/01/05:31:23.896000,346,0,0,,0.0003,0.061,0.09,0.1,-0.057,0.02,0.057,0.052,0.683
1970/01/01/05:31:23.998000,347,0,0,,0.0003,0.06,0.09,0.1,-0.057,0.02,0.057,0.051,0.674
1970/01/01/05:31:24.098000,348,0,0,,0.0003,0.059,0.09,0.1,-0.057,0.02,0.057,0.051,0.665
1970/01/01/05:31:24.198000,349,0,0,,0.0003,0.058,0.09,0.1,-0.056,0.02,0.056,0.05,0.657
1970/01/01/05:31:24.297000,350,0,0,,0.0003,0.057,0.09,0.1,-0.056,0.02,0.056,0.05,0.647
1970/01/01/05:31:24.398000,351,0,0,,0.0003,0.057,0.09,0.1,-0.056,0.02,0.056,0.05,0.638
1970/01/01/05:31:24.497000,352,0,0,,0.0004,0.056,0.09,0.1,-0.056,0.02,0.056,0.049,0.63
1970/01/01/05:31:24.597000,353,0,0,,0.0004,0.055,0.09,0.1,-0.056,0.02,0.056,0.049,0.621
1970/01/01/05:31:24.696000,354,0,0,,0.0004,0.054,0.09,0.1,-0.055,0.02,0.055,0.048,0.61
1970/01/01/05:31:24.798000,355,0,0,,0.0004,0.053,0.09,0.1,-0.055,0.02,0.055,0.048,0.602
1970/01/01/05:31:24.898000,356,0,0,,0.0004,0.052,0.09,0.1,-0.055,0.02,0.055,0.047,0.593
1970/01/01/05:31:24.998000,357,0,0,,0.0004,0.052,0.09,0.1,-0.055,0.02,0.055,0.047,0.584
1970/01/01/05:31:25.097000,358,0,0,,0.0005,0.051,0.09,0.1,-0.055,0.02,0.055,0.046,0.575
1970/01/01/05:31:25.198000,359,0,0,,0.0005,0.05,0.09,0.1,-0.054,0.02,0.054,0.046,0.567
1970/01/01/05:31:25.298000,360,0,0,,0.0004,0.049,0.09,0.1,-0.054,0.02,0.054,0.046,0.558
1970/01/01/05:31:25.399000,361,0,0,,0.0005,0.048,0.09,0.1,-0.054,0.02,0.054,0.045,0.548
1970/01/01/05:31:25.496000,362,0,0,,0.0005,0.048,0.09,0.1,-0.054,0.02,0.054,0.044,0.54
1970/01/01/05:31:25.598000,363,0,0,,0.0005,0.047,0.09,0.1,-0.054,0.02,0.054,0.044,0.531
1970/01/01/05:31:25.697000,364,0,0,,0.0005,0.046,0.09,0.1,-0.053,0.02,0.053,0.044,0.522
1970/01/01/05:31:25.797000,365,0,0,,0.0005,0.045,0.09,0.1,-0.053,0.02,0.053,0.043,0.513
1970/01/01/05:31:25.897000,366,0,0,,0.0005,0.045,0.09,0.1,-0.053,0.02,0.053,0.043,0.505
1970/01/01/05:31:25.999000,367,0,0,,0.0005,0.044,0.09,0.1,-0.053,0.02,0.053,0.043,0.495
1970/01/01/05:31:26.097000,368,0,0,,0.0006,0.043,0.09,0.1,-0.053,0.02,0.053,0.042,0.486
1970/01/01/05:31:26.197000,369,0,0,,0.0006,0.043,0.09,0.1,-0.053,0.02,0.053,0.042,0.483
1970/01/01/05:31:26.297000,370,0,0,,0.0006,0.043,0.09,0.1,-0.053,0.02,0.053,0.042,0.483
1970/01/01/05:31:26.398000,371,0,0,,0.0006,0.043,0.09,0.1,-0.053,0.02,0.053,0.042,0.483
1970/01/01/05:31:26.498000,372,0,0,,0.0006,0.043,0.09,0.1,-0.053,0.02,0.053,0.042,0.483
1970/01/01/05:31:26.597000,373,0,0,,0.0006,0.043,0.09,0.1,-0.053,0.02,0.053,0.042,0.483
1970/01/01/05:31:26.698000,374,0,0,,0.0006,0.043,0.09,0.1,-0.053,0.02,0.053,0.042,0.483
1970/01/01/05:31:26.799000,375,0,0,,0.0005,0.043,0.09,0.1,-0.052,0.02,0.052,0.042,0.483
1970/01/01/05:31:26.897000,376,0,0,,0.0005,0.043,0.09,0.1,-0.052,0.02,0.052,0.043,0.483
1970/01/01/05:31:26.998000,377,0,0,,0.0005,0.043,0.09,0.1,-0.052,0.02,0.052,0.043,0.483
1970/01/01/05:31:27.098000,378,0,0,,0.0005,0.044,0.09,0.1,-0.052,0.02,0.052,0.043,0.484
1970/01/01/05:31:27.198000,379,0,0,,0.0005,0.044,0.09,0.1,-0.052,0.02,0.052,0.043,0.484
1970/01/01/05:31:27.298000,380,0,0,,0.0005,0.044,0.09,0.1,-0.052,0.02,0.052,0.043,0.484
1970/01/01/05:31:27.398000,381,0,0,,0.0005,0.044,0.09,0.1,-0.052,0.02,0.052,0.043,0.484
1970/01/01/05:31:27.498000,382,0,0,,0.0005,0.044,0.09,0.1,-0.052,0.02,0.052,0.043,0.484
1970/01/01/05:31:27.598000,383,0,0,,0.0004,0.044,0.09,0.1,-0.052,0.02,0.052,0.044,0.485
1970/01/01/05:31:27.698000,384,0,0,,0.0004,0.044,0.09,0.1,-0.052,0.02,0.052,0.044,0.485
1970/01/01/05:31:27.796000,385,0,0,,0.0004,0.044,0.09,0.1,-0.052,0.02,0.052,0.044,0.485
1970/01/01/05:31:27.898000,386,0,0,,0.0004,0.044,0.09,0.1,-0.052,0.02,0.052,0.044,0.485
1970/01/01/05:31:27.998000,387,0,0,,0.0004,0.044,0.09,0.1,-0.052,0.02,0.052,0.044,0.485
1970/01/01/05:31:28.097000,388,0,0,,0.0004,0.044,0.09,0.1,-0.052,0.02,0.052,0.044,0.485
1970/01/01/05:31:28.198000,389,0,0,,0.0004,0.044,0.09,0.1,-0.052,0.02,0.052,0.044,0.486
1970/01/01/05:31:28.298000,390,0,0,,0.0003,0.044,0.09,0.1,-0.051,0.02,0.051,0.045,0.486
1970/01/01/05:31:28.398000,391,0,0,,0.0003,0.044,0.09,0.1,-0.051,0.02,0.051,0.045,0.486
1970/01/01/05:31:28.497000,392,0,0,,0.0003,0.044,0.09,0.1,-0.051,0.02,0.051,0.045,0.486
1970/01/01/05:31:28.598000,393,0,0,,0.0003,0.044,0.09,0.1,-0.051,0.02,0.051,0.045,0.486
1970/01/01/05:31:28.698000,394,0,0,,0.0003,0.044,0.09,0.1,-0.051,0.02,0.051,0.045,0.486
1970/01/01/05:31:28.797000,395,0,0,,0.0003,0.044,0.09,0.1,-0.051,0.02,0.051,0.045,0.487
1970/01/01/05:31:28.899000,396,0,0,,0.0003,0.044,0.09,0.1,-0.051,0.02,0.051,0.045,0.487
1970/01/01/05:31:28.999000,397,0,0,,0.0003,0.044,0.09,0.1,-0.051,0.02,0.051,0.046,0.487
1970/01/01/05:31:29.098000,398,0,0,,0.0003,0.044,0.09,0.1,-0.051,0.02,0.051,0.046,0.487
1970/01/01/05:31:29.198000,399,0,0,,0.0003,0.044,0.09,0.1,-0.051,0.02,0.051,0.046,0.487
1970/01/01/05:31:29.298000,400,0,0,,0.0003,0.044,0.09,0.1,-0.051,0.02,0.051,0.046,0.487
1970/01/01/05:31:29.398000,401,0,0,,0.0003,0.044,0.09,0.1,-0.051,0.02,0.051,0.046,0.488
1970/01/01/05:31:29.498000,402,0,0,,0.0003,0.044,0.09,0.1,-0.051,0.02,0.051,0.046,0.488
1970/01/01/05:31:29.597000,403,0,0,,0.0003,0.044,0.09,0.1,-0.051,0.02,0.051,0.046,0.488
1970/01/01/05:31:29.697000,404,0,0,,0.0002,0.044,0.09,0.1,-0.051,0.02,0.051,0.047,0.488
1970/01/01/05:31:29.799000,405,0,0,,0.0002,0.044,0.09,0.1,-0.051,0.02,0.051,0.047,0.488
1970/01/01/05:31:29.898000,406,0,0,,0.0002,0.044,0.09,0.1,-0.05,0.02,0.05,0.047,0.488
